"","School.Year","Building.Code","DBN","Location.Name","Location.Code","Address","Borough","Geographical.District.Code","Register","Building.Name","X..Schools","Schools.in.Building","Major.N","Oth.N","NoCrim.N","Prop.N","Vio.N","ENGroupA","RangeA","AvgOfMajor.N","AvgOfOth.N","AvgOfNoCrim.N","AvgOfProp.N","AvgOfVio.N","Borough.Name","Postcode","Latitude","Longitude","Community.Board","Council.District","Census.Tract","BIN","BBL","NTA"
"1","2013-14","K001","15K001","P.S. 001 The Bergen","K001","309 47 STREET","K",15,"1,277","",1,"P.S. 001 The Bergen","0","2","1","1","0","7C","1251-1500","0.86","3.26","5.55","2.17","1.29","BROOKLYN ",11220,40.649042,-74.012289,7,38,80,3011821,3007550022,"Sunset Park West                                                           "
"2","2013-14","K002","","655 PARKSIDE AVENUE CONSOLIDATED LOCATION","","655 PARKSIDE AVENUE","K",17,"876","655 PARKSIDE AVENUE CONSOLIDATED LOCATION",3,"Parkside Preparatory Academy |  P.S. K141 |Explore Charter High School |655 PARKSIDE AVENUE CONSOLIDATED LOCATION","1","5","2","2","4","5C","751-1000","0.52","1.71","2.49","1.16","0.75","BROOKLYN ",11226,40.656183,-73.951583,9,40,802,3378201,3050500051,"Prospect Lefferts Gardens-Wingate                                          "
"3","2013-14","K003","13K003","P.S. 003 The Bedford Village","K003","50 JEFFERSON AVENUE","K",13,"513","",1,"P.S. 003 The Bedford Village","2","0","0","2","0","4C","501-750","0.33","1.32","1.76","0.83","0.59","BROOKLYN ",11216,40.682663,-73.955338,3,36,227,3057406,3019980001,"Clinton Hill                                                               "
"4","2013-14","K005","16K005","P.S. 005 Dr. Ronald Mcnair","K005","820 HANCOCK STREET","K",16,"312","",1,"P.S. 005 Dr. Ronald Mcnair","1","1","0","2","0","3C","251-500","0.35","1.06","1.09","0.73","0.5","BROOKLYN ",11233,40.685695,-73.922463,3,41,377,3039906,3014900001,"Stuyvesant Heights                                                         "
"5","2013-14","K006","17K006","P.S. 006","K006","43 SNYDER AVENUE","K",17,"714","",1,"P.S. 006","0","1","2","0","0","4C","501-750","0.33","1.32","1.76","0.83","0.59","BROOKLYN ",11226,40.64859,-73.957138,14,40,794,3117230,3051030079,"Erasmus                                                                    "
"6","2013-14","K007","19K007","P.S. 007 Abraham Lincoln","K007","858 JAMAICA AVENUE","K",19,"1,073","",1,"P.S. 007 Abraham Lincoln","0","1","0","0","0","6C","1001-1250","0.56","2.4","3.56","1.36","1.05","BROOKLYN ",11208,40.689697,-73.873109,5,37,118201,3090998,3041060039,"Cypress Hills-City Line                                                    "
"7","2013-14","K008","13K008","P.S. 008 Robert Fulton","K008","37 HICKS STREET","K",13,"848","",1,"P.S. 008 Robert Fulton","0","0","0","0","0","5C","751-1000","0.52","1.71","2.49","1.16","0.75","BROOKLYN ",11201,40.70071,-73.993241,2,33,1,3001540,3002110001,"Brooklyn Heights-Cobble Hill                                               "
"8","2013-14","K009","","80 UNDERHILL AVENUE CONSOLIDATED LOCATION","","80 UNDERHILL AVENUE","K",13,"722","80 UNDERHILL AVENUE CONSOLIDATED LOCATION",2,"P.S. 009 Teunis G. Bergen|Brooklyn East Collegiate Charter School|80 UNDERHILL AVENUE CONSOLIDATED LOCATION","0","1","1","1","0","4C","501-750","0.33","1.32","1.76","0.83","0.59","BROOKLYN ",11238,40.678297,-73.965541,8,35,205,3028204,3011450026,"Prospect Heights                                                           "
"9","2013-14","K010","15K010","Magnet School of Math, Science and Design Technolo","K010","511 7 AVENUE","K",15,"921","",1,"Magnet School of Math, Science and Design Technolo","0","1","0","0","1","5C","751-1000","0.52","1.71","2.49","1.16","0.75","BROOKLYN ",11215,40.661061,-73.986534,7,38,149,3016509,3008690001,"Park Slope-Gowanus                                                         "
"10","2013-14","K011","13K011","P.S. 011 Purvis J. Behan","K011","419 WAVERLY AVENUE","K",13,"732","",1,"P.S. 011 Purvis J. Behan","1","0","1","1","0","4C","501-750","0.33","1.32","1.76","0.83","0.59","BROOKLYN ",11238,40.685491,-73.966291,2,35,199,3332865,3019620010,"Clinton Hill                                                               "
"11","2013-14","K107","15K107","P.S. 107 John W. Kimball","K107","1301 8 AVENUE","K",15,"578","",1,"P.S. 107 John W. Kimball","0","1","0","1","0","4C","501-750","0.33","1.32","1.76","0.83","0.59","BROOKLYN ",11215,40.663251,-73.981289,6,39,167,3026517,3011010001,"Park Slope-Gowanus                                                         "
"12","2013-14","K012","","430 HOWARD AVENUE CONSOLIDATED LOCATION","","430 HOWARD AVENUE","K",23,"357","430 HOWARD AVENUE CONSOLIDATED LOCATION",2,"Dr. Jacqueline Peek-Davis School |  Ronald Edmonds Learning Center II |  430 HOWARD AVENUE CONSOLIDATED LOCATION","2","3","3","5","0","3C","251-500","0.35","1.06","1.09","0.73","0.5","BROOKLYN ",11233,40.673073,-73.919594,16,41,363,3039174,3014570032,"Ocean Hill                                                                 "
"13","2013-14","K013","","557 PENNSYLVANIA AVENUE CONSOLIDATED LOCATION","","557 PENNSYLVANIA AVENUE","K",19,"494","557 PENNSYLVANIA AVENUE CONSOLIDATED LOCATION",2,"P.S. 013 Roberto Clemente| Achievement First East New York Charter School| 557 PENNSYLVANIA AVENUE CONDOLIDATED LOCATION","0","1","4","0","1","3C","251-500","0.35","1.06","1.09","0.73","0.5","BROOKLYN ",11207,40.663673,-73.893754,5,42,1126,3085070,3038230001,"East New York (Pennsylvania Ave)                                           "
"14","2013-14","K014","22K014","J.H.S. 014 Shell Bank","K014","2424 BATCHELDER STREET","K",22,"558","",1,"J.H.S. 014 Shell Bank","0","4","2","3","0","4C","501-750","0.33","1.32","1.76","0.83","0.59","BROOKLYN ",11235,40.593521,-73.937672,15,48,596,3203617,3074240001,"Sheepshead Bay-Gerritsen Beach-Manhattan Beach                             "
"15","2013-14","K015","15K015","P.S. 015 Patrick F. Daly","K015","71 SULLIVAN STREET","K",15,"392","",1,"P.S. 015 Patrick F. Daly","0","1","1","1","0","3C","251-500","0.35","1.06","1.09","0.73","0.5","BROOKLYN ",11231,40.677343,-74.011558,6,38,53,3008585,3005660001,"Carroll Gardens-Columbia Street-Red Hook                                   "
"16","2013-14","K016","","157 WILSON STREET CONSOLIDATED LOCATION","","157 WILSON STREET","K",14,"249","157 WILSON STREET CONSOLIDATED LOCATION",2,"P.S. 016 Leonard Dunkly|  Williamsburg Collegiate Charter School|  157 WILSON STREET CONSOLIDATED LOCATION","0","0","2","0","0","2C","1-250","0.43","1.03","1.23","0.99","0.41","BROOKLYN ",11211,40.706023,-73.961476,1,33,535,3059906,3021770001,"Williamsburg                                                               "
"17","2013-14","K017","","208 NORTH  5 STREET CONSOLIDATED LOCATION","","208 NORTH  5 STREET","K",14,"832","208 NORTH  5 STREET CONSOLIDATED LOCATION",2,"P.S. 017 Henry D. Woodworth |  Conselyea Preparatory School |  208 NORTH  5 STREET CONSOLIDATED LOCATION","0","0","1","0","0","5C","751-1000","0.52","1.71","2.49","1.16","0.75","BROOKLYN ",11211,40.715351,-73.956716,1,34,519,3062337,3023450001,"North Side-South Side                                                      "
"18","2013-14","K018","14K018","P.S. 018 Edward Bush","K018","101 MAUJER STREET","K",14,"197","",1,"P.S. 018 Edward Bush","1","2","1","3","0","2C","1-250","0.43","1.03","1.23","0.99","0.41","BROOKLYN ",11206,40.710609,-73.946977,1,34,503,3069559,3027870001,"East Williamsburg                                                          "
"19","2014-15","K932","07X695","PASSAGES ACADEMY AT BELMONT(BN)","X695","560 BROOK AVENUE","K",7,"395","",1,"PASSAGES ACADEMY AT BELMONT(BN)","0","1","1","0","1","3C","251-500","0.27","1.11","1.38","0.8","0.48","",NA,NA,NA,NA,NA,NA,NA,NA,""
"20","2013-14","K019","","325 SOUTH  3 STREET CONSOLIDATED LOCATION","","325 SOUTH  3 STREET","K",14,"447","325 SOUTH  3 STREET CONSOLIDATED LOCATION",2,"P.S. 019 Roberto Clemente |  Brooklyn Arbor Elementary School |  325 SOUTH  3 STREET CONSOLIDATED LOCATION","0","1","1","1","0","3C","251-500","0.35","1.06","1.09","0.73","0.5","BROOKLYN ",11211,40.709647,-73.95465,1,34,527,3063188,3024230001,"North Side-South Side                                                      "
"21","2013-14","K020","","225 ADELPHI STREET CONSOLIDATED LOCATION","","225 ADELPHI STREET","K",13,"811","225 ADELPHI STREET CONSOLIDATED LOCATION",2,"P.S. 020 Clinton Hill |  Academy of Arts and Letters |  225 ADELPHI STREET CONSOLIDATED LOCATION","0","0","1","0","0","5C","751-1000","0.52","1.71","2.49","1.16","0.75","BROOKLYN ",11205,40.690765,-73.971376,2,35,183,3058531,3020910003,"Fort Greene                                                                "
"22","2013-14","K021","16K021","P.S. 021 Crispus Attucks","K021","180 CHAUNCEY STREET","K",16,"648","",1,"P.S. 021 Crispus Attucks","0","1","1","1","0","4C","501-750","0.33","1.32","1.76","0.83","0.59","BROOKLYN ",11233,40.680727,-73.926597,3,36,381,3047914,3016920017,"Crown Heights North                                                        "
"23","2013-14","K022","","443 ST MARKS AVENUE CONSOLIDATED LOCATION","","443 ST MARKS AVENUE","K",17,"292","443 ST MARKS AVENUE CONSOLIDATED LOCATION",3,"P.S. 022 |Brooklyn Arts and Science Elementary School |Explore Exceed Charter School |443 ST MARKS AVENUE CONSOLIDATED LOCATION","2","0","2","2","0","3C","251-500","0.35","1.06","1.09","0.73","0.5","BROOKLYN ",11238,40.676774,-73.960058,8,35,305,3028281,3011480050,"Crown Heights North                                                        "
"24","2013-14","K102","20K102","P.S. 102 The Bayview","K102","211 72 STREET","K",20,"1,352","",1,"P.S. 102 The Bayview","0","1","1","1","0","7C","1251-1500","0.86","3.26","5.55","2.17","1.29","BROOKLYN ",11209,40.63402,-74.029036,10,43,68,3146491,3058900001,"Bay Ridge                                                                  "
"25","2013-14","K023","","545 WILLOUGHBY AVENUE CONSOLIDATED LOCATION","","545 WILLOUGHBY AVENUE","K",14,"276","545 WILLOUGHBY AVENUE CONSOLIDATED LOCATION",2,"P.S. 023 Carter G. Woodson |Brooklyn Charter School |545 WILLOUGHBY AVENUE CONSOLIDATED LOCATION","1","0","0","1","0","3C","251-500","0.35","1.06","1.09","0.73","0.5","BROOKLYN ",11206,40.69407,-73.94756,3,36,25901,3048818,3017590013,"Bedford                                                                    "
"26","2013-14","K024","15K024","P.S. 024","K024","427 38 STREET","K",15,"699","",1,"P.S. 024","0","0","1","0","0","4C","501-750","0.33","1.32","1.76","0.83","0.59","BROOKLYN ",11232,40.652701,-74.004743,7,38,84,3346119,3007010001,"Sunset Park West                                                           "
"27","2013-14","Q239","24Q239","P.S. 239","Q239","17-15 WEIRFIELD STREET","Q",24,"696","",1,"P.S. 239","0","0","0","0","0","4C","501-750","0.33","1.32","1.76","0.83","0.59","QUEENS   ",11385,40.699149,-73.903799,5,34,553,4435561,4035610001,"Ridgewood                                                                  "
"28","2013-14","K025","","787 LAFAYETTE AVENUE CONSOLIDATED LOCATION","","787 LAFAYETTE AVENUE","K",16,"386","787 LAFAYETTE AVENUE CONSOLIDATED LOCATION",2,"P.S. 025 Eubie Blake School |  Upper School @ P.S. 25 |  787 LAFAYETTE AVENUE CONSOLIDATED LOCATION","0","3","0","0","2","3C","251-500","0.35","1.06","1.09","0.73","0.5","BROOKLYN ",11221,40.691037,-73.941342,3,36,281,3049858,3017870014,"Stuyvesant Heights                                                         "
"29","2013-14","K026","","1014 LAFAYETTE AVENUE CONSOLIDATED LOCATION","","1014 LAFAYETTE AVENUE","K",16,"574","1014 LAFAYETTE AVENUE CONSOLIDATED LOCATION",3,"P.S. 026 Jesse Owens |  Frederick Douglass Academy IV Secondary School |  Madiba Prep Middle School |1014 LAFAYETTE AVENUE CONSOLIDATED LOCATION","1","0","6","1","0","4C","501-750","0.33","1.32","1.76","0.83","0.59","BROOKLYN ",11221,40.692126,-73.931731,3,36,291,3393805,3016160001,"Stuyvesant Heights                                                         "
"30","2013-14","K027","","27 HUNTINGTON STREET CONSOLIDATED LOCATION","","27 HUNTINGTON STREET","K",15,"223","27 HUNTINGTON STREET CONSOLIDATED LOCATION",2,"Red Hook Neighborhood School|Summit Academy Charter School|27 HUNTINGTON STREET CONSOLIDATED LOCATION","0","1","0","1","0","2C","1-250","0.43","1.03","1.23","0.99","0.41","BROOKLYN ",11231,40.677564,-74.005166,6,38,59,3008342,3005250001,"Carroll Gardens-Columbia Street-Red Hook                                   "
"31","2013-14","K028","16K028","P.S. 028 The Warren Prep Academy","K028","1001 HERKIMER STREET","K",16,"240","",1,"P.S. 028 The Warren Prep Academy","0","0","0","0","0","2C","1-250","0.43","1.03","1.23","0.99","0.41","BROOKLYN ",11233,40.678049,-73.92032,3,41,301,3042090,3015480019,"Ocean Hill                                                                 "
"32","2013-14","K029","15K029","P.S. 029 John M. Harrigan","K029","425 HENRY STREET","K",15,"803","",1,"P.S. 029 John M. Harrigan","0","0","1","0","0","5C","751-1000","0.52","1.71","2.49","1.16","0.75","BROOKLYN ",11201,40.686951,-73.99806,6,39,45,3255627,3003110001,"Carroll Gardens-Columbia Street-Red Hook                                   "
"33","2013-14","K031","14K031","P.S. 031 Samuel F. Dupont","K031","75 MESEROLE AVENUE","K",14,"596","",1,"P.S. 031 Samuel F. Dupont","0","0","0","0","0","4C","501-750","0.33","1.32","1.76","0.83","0.59","BROOKLYN ",11222,40.726587,-73.95427,1,33,561,3065299,3025950001,"Greenpoint                                                                 "
"34","2013-14","K032","","317 HOYT STREET CONSOLIDATED LOCATION","","317 HOYT STREET","K",15,"617","317 HOYT STREET CONSOLIDATED LOCATION",2,"P.S. 032 Samuel Mills Sprole |  M.S. 442 Carroll Gardens School for Innovation |  317 HOYT STREET CONSOLIDATED LOCATION ","1","3","1","4","0","4C","501-750","0.33","1.32","1.76","0.83","0.59","BROOKLYN ",11231,40.680445,-73.991949,6,39,75,3395587,3004370001,"Carroll Gardens-Columbia Street-Red Hook                                   "
"35","2013-14","M824","02M418","Millennium High School","M418","75 BROAD STREET","M",2,"619","",1,"Millennium High School","0","0","0","0","0","4C","501-750","0.33","1.32","1.76","0.83","0.59","MANHATTAN",10004,40.704487,-74.011556,1,1,9,1000849,1000290070,"Battery Park City-Lower Manhattan                                          "
"36","2013-14","K033","","70 TOMPKINS AVENUE CONSOLIDATED LOCATION","","70 TOMPKINS AVENUE","K",14,"457","70 TOMPKINS AVENUE CONSOLIDATED LOCATION",4,"Foundations Academy|  The Urban Assembly School for the Urban Environmen|  P.S. 368|  Success Academy Charter School - Bed-Stuy 1|  70 TOMPKINS AVENUE CONSOLIDATED LOCATION","1","7","2","4","3","3C","251-500","0.35","1.06","1.09","0.73","0.5","BROOKLYN ",11206,40.697152,-73.946641,3,36,257,3048517,3017430018,"Bedford                                                                    "
"37","2013-14","K034","14K034","P.S. 034 Oliver H. Perry","K034","131 NORMAN AVENUE","K",14,"552","",1,"P.S. 034 Oliver H. Perry","1","1","0","2","0","4C","501-750","0.33","1.32","1.76","0.83","0.59","BROOKLYN ",11222,40.726135,-73.949649,1,33,573,3065733,3026220028,"Greenpoint                                                                 "
"38","2013-14","K035","","272 MACDONOUGH STREET CONSOLIDATED LOCATION","","272 MACDONOUGH STREET","K",16,"428","272 MACDONOUGH STREET CONSOLIDATED LOCATION",2,"Brooklyn Brownstone School |  M.S. 035 Stephen Decatur |  272 MACDONOUGH STREET CONSOLIDATED LOCATION","0","1","2","0","1","3C","251-500","0.35","1.06","1.09","0.73","0.5","BROOKLYN ",11233,40.681896,-73.935963,3,36,273,3047054,3016740011,"Stuyvesant Heights                                                         "
"39","2013-14","K038","15K038","P.S. 038 The Pacific","K038","450 PACIFIC STREET","K",15,"504","",1,"P.S. 038 The Pacific","0","0","1","0","0","4C","501-750","0.33","1.32","1.76","0.83","0.59","BROOKLYN ",11217,40.685264,-73.982639,2,33,39,3001183,3001910001,"DUMBO-Vinegar Hill-Downtown Brooklyn-Boerum Hill                           "
"40","2013-14","K039","15K039","P.S. 039 Henry Bristow","K039","417 6 AVENUE","K",15,"387","",1,"P.S. 039 Henry Bristow","0","0","0","0","0","3C","251-500","0.35","1.06","1.09","0.73","0.5","BROOKLYN ",11215,40.668916,-73.983195,6,39,153,3021932,3010000001,"Park Slope-Gowanus                                                         "
"41","2013-14","K040","","265 RALPH AVENUE CONSOLIDATED LOCATION","","265 RALPH AVENUE","K",16,"579","265 RALPH AVENUE CONSOLIDATED LOCATION",2,"P.S. 040 George W. Carver |  Gotham Professional Arts Academy |  265 RALPH AVENUE CONSOLIDATED LOCATION","1","0","0","1","0","4C","501-750","0.33","1.32","1.76","0.83","0.59","BROOKLYN ",11233,40.680463,-73.922264,3,41,379,3041214,3015180001,"Stuyvesant Heights                                                         "
"42","2013-14","K041","23K041","P.S. 041 Francis White","K041","411 THATFORD AVENUE","K",23,"553","",1,"P.S. 041 Francis White","0","6","0","0","5","4C","501-750","0.33","1.32","1.76","0.83","0.59","BROOKLYN ",11212,40.660306,-73.907355,16,42,918,3082389,3036040001,"Brownsville                                                                "
"43","2013-14","K043","21K098","I.S. 98 Bay Academy","K098","1401 EMMONS AVENUE","K",21,"1,367","",1,"I.S. 98 Bay Academy","0","0","1","0","0","7C","1251-1500","0.86","3.26","5.55","2.17","1.29","BROOKLYN ",11235,40.583125,-73.954037,15,48,608,3246958,3087670026,"Sheepshead Bay-Gerritsen Beach-Manhattan Beach                             "
"44","2013-14","K044","","432 MONROE STREET CONSOLIDATED LOCATION","","432 MONROE STREET","K",13,"287","432 MONROE STREET CONSOLIDATED LOCATION",2,"P.S. 044 Marcus Garvey|Unity Prep Charter School|432 MONROE STREET CONSOLIDATED LOCATION","0","0","1","0","0","3C","251-500","0.35","1.06","1.09","0.73","0.5","BROOKLYN ",11221,40.686592,-73.940747,3,36,277,3051540,3018210001,"Stuyvesant Heights                                                         "
"45","2013-14","K045","32K045","P.S./I.S. 045 Horace E. Greene","K045","84 SCHAEFER STREET","K",32,"871","",1,"P.S./I.S. 045 Horace E. Greene","0","1","2","1","0","5C","751-1000","0.52","1.71","2.49","1.16","0.75","BROOKLYN ",11207,40.686746,-73.910693,4,37,401,3079428,3034270011,"Bushwick South                                                             "
"46","2013-14","K046","","100 CLERMONT AVENUE CONSOLIDATED LOCATION","","100 CLERMONT AVENUE","K",13,"674","100 CLERMONT AVENUE CONSOLIDATED LOCATION",2,"P.S. 046 Edward C. Blum |  Fort Greene Preparatory Academy |  100 CLERMONT AVENUE CONSOLIDATED LOCATION","2","1","2","3","0","4C","501-750","0.33","1.32","1.76","0.83","0.59","BROOKLYN ",11205,40.694633,-73.971165,2,35,187,3058088,3020450011,"Fort Greene                                                                "
"47","2013-14","K048","20K048","P.S. 048 Mapleton","K048","6015 18 AVENUE","K",20,"623","",1,"P.S. 048 Mapleton","0","0","0","0","0","4C","501-750","0.33","1.32","1.76","0.83","0.59","BROOKLYN ",11204,40.621871,-73.987396,12,44,244,3132140,3055190001,"Borough Park                                                               "
"48","2013-14","K049","","223 GRAHAM AVENUE CONSOLIDATED LOCATION","","223 GRAHAM AVENUE","K",14,"1,466","223 GRAHAM AVENUE CONSOLIDATED LOCATION",3,"Brooklyn Latin School, The |  Green School: An Academy for Environmental Careers |  Lyons Community School 223 GRAHAM AVENUE CONSOLIDATED LOCATION","1","8","4","4","4","7C","1251-1500","0.86","3.26","5.55","2.17","1.29","BROOKLYN ",11206,40.709941,-73.943641,1,34,505,3070825,3030250001,"East Williamsburg                                                          "
"49","2013-14","K108","19K108","P.S. 108 Sal Abbracciamento","K108","200 LINWOOD STREET","K",19,"891","",1,"P.S. 108 Sal Abbracciamento","0","0","3","0","0","5C","751-1000","0.52","1.71","2.49","1.16","0.75","BROOKLYN ",11208,40.681268,-73.884063,5,37,117202,3087131,3039260045,"Cypress Hills-City Line                                                    "
"50","2013-14","K050","","183 SOUTH  3 STREET  CONSOLIDATED LOCATION","","183 SOUTH  3 STREET","K",14,"306","183 SOUTH  3 STREET  CONSOLIDATED LOCATION",2,"J.H.S. 050 John D. Wells l Success Academy Charter School - Williamsburg l 183 SOUTH  3 STREET  CONSOLIDATED LOCATION","0","2","1","1","1","3C","251-500","0.35","1.06","1.09","0.73","0.5","BROOKLYN ",11211,40.711704,-73.960275,1,34,523,3063128,3024190001,"North Side-South Side                                                      "
"51","2013-14","K051","15K051","M.S. 51 William Alexander","K051","350 5 AVENUE","K",15,"1,116","",1,"M.S. 51 William Alexander","0","0","0","0","0","6C","1001-1250","0.56","2.4","3.56","1.36","1.05","BROOKLYN ",11215,40.672015,-73.983947,6,39,135,3021057,3009810111,"Park Slope-Gowanus                                                         "
"52","2013-14","K052","22K052","P.S. 052 Sheepshead Bay","K052","2675 EAST  29 STREET","K",22,"789","",1,"P.S. 052 Sheepshead Bay","0","1","0","0","1","5C","751-1000","0.52","1.71","2.49","1.16","0.75","BROOKLYN ",11235,40.58792,-73.940532,15,48,600,3205435,3074740001,"Sheepshead Bay-Gerritsen Beach-Manhattan Beach                             "
"53","2013-14","K054","13K054","P.S. 054 Samuel C. Barnes","K054","195 SANFORD STREET","K",13,"251","",1,"P.S. 054 Samuel C. Barnes","1","0","0","0","1","3C","251-500","0.35","1.06","1.09","0.73","0.5","BROOKLYN ",11205,40.693018,-73.953034,3,33,241,3049020,3017650015,"Bedford                                                                    "
"54","2013-14","K055","","2021 BERGEN STREET CONSOLIDATED LOCATION","","2021 BERGEN STREET","K",23,"387","2021 BERGEN STREET CONSOLIDATED LOCATION",2,"Brooklyn Collegiate: A College Board School l Achievement First Brownsville Charter School l 2021 BERGEN STREET CONSOLIDATED LOCATION","0","5","7","3","1","3C","251-500","0.35","1.06","1.09","0.73","0.5","BROOKLYN ",11233,40.674103,-73.913273,16,41,36501,3038939,3014480001,"Ocean Hill                                                                 "
"55","2013-14","K056","","170 GATES AVENUE CONSOLIDATED LOCATION","","170 GATES AVENUE","K",13,"433","170 GATES AVENUE CONSOLIDATED LOCATION",3,"P.S. 056 Lewis H. Latimer |  Satellite Three |  The Urban Assembly Unison School |  170 GATES AVENUE CONSOLIDATED LOCATION","0","0","0","0","0","3C","251-500","0.35","1.06","1.09","0.73","0.5","BROOKLYN ",11238,40.68505,-73.960659,2,35,231,3056874,3019830010,"Clinton Hill                                                               "
"56","2013-14","K104","20K104","P.S./I.S. 104 The Fort Hamilton School","K104","9115 5 AVENUE","K",20,"1,181","",1,"P.S./I.S. 104 The Fort Hamilton School","0","1","2","1","0","6C","1001-1250","0.56","2.4","3.56","1.36","1.05","BROOKLYN ",11209,40.618415,-74.028842,10,43,160,3154775,3060880001,"Bay Ridge                                                                  "
"57","2013-14","K057","","125 STUYVESANT AVENUE CONSOLIDATED LOCATION","","125 STUYVESANT AVENUE","K",16,"474","125 STUYVESANT AVENUE CONSOLIDATED LOCATION",3,"J.H.S. 057 Whitelaw Reid |  School of Business, Finance and Entrepreneurship |  The Brooklyn Academy of Global Finance |  125 STUYVESANT AVENUE CONSOLIDATED LOCATION","2","3","4","2","1","3C","251-500","0.35","1.06","1.09","0.73","0.5","BROOKLYN ",11221,40.691274,-73.933697,3,36,291,3043822,3016160001,"Stuyvesant Heights                                                         "
"58","2013-14","K058","15K058","P.S. 058 The Carroll","K058","330 SMITH STREET","K",15,"944","",1,"P.S. 058 The Carroll","0","0","0","0","0","5C","751-1000","0.52","1.71","2.49","1.16","0.75","BROOKLYN ",11231,40.680149,-73.994938,6,39,77,3007547,3004490015,"Carroll Gardens-Columbia Street-Red Hook                                   "
"59","2013-14","K096","21K096","I.S. 096 Seth Low","K096","99 AVENUE P","K",21,"711","",1,"I.S. 096 Seth Low","0","3","8","1","1","4C","501-750","0.33","1.32","1.76","0.83","0.59","BROOKLYN ",11204,40.60754,-73.984661,11,44,430,3174076,3065950033,"Bensonhurst East                                                           "
"60","2013-14","K059","","211 THROOP AVENUE CONSOLIDATED LOCATION","","211 THROOP AVENUE","K",14,"374","211 THROOP AVENUE CONSOLIDATED LOCATION",2,"P.S. 059 William Floyd |  Success Academy Charter School - Bed-Stuy 2 |  211 THROOP AVENUE CONSOLIDATED LOCATION","0","1","0","0","0","3C","251-500","0.35","1.06","1.09","0.73","0.5","BROOKLYN ",11206,40.696733,-73.943652,3,36,28502,3048546,3017490001,"Stuyvesant Heights                                                         "
"61","2013-14","K061","17K061","M.S. 061 Dr. Gladstone H. Atwell","K061","400 EMPIRE BOULEVARD","K",17,"777","",1,"M.S. 061 Dr. Gladstone H. Atwell","2","6","8","3","4","5C","751-1000","0.52","1.71","2.49","1.16","0.75","BROOKLYN ",11225,40.664007,-73.94922,9,40,329,3337872,3013160015,"Prospect Lefferts Gardens-Wingate                                          "
"62","2013-14","K062","20K062","J.H.S. 062 Ditmas","K062","700 CORTELYOU ROAD","K",20,"1,297","",1,"J.H.S. 062 Ditmas","0","2","0","1","1","7C","1251-1500","0.86","3.26","5.55","2.17","1.29","BROOKLYN ",11218,40.638686,-73.971651,12,40,490,3126842,3053910001,"Kensington-Ocean Parkway                                                   "
"63","2013-14","K066","18K066","P.S. 66","K066","845 EAST  96 STREET","K",18,"777","",1,"P.S. 66","0","0","0","0","0","5C","751-1000","0.52","1.71","2.49","1.16","0.75","BROOKLYN ",11236,40.64883,-73.907774,18,42,970,3325418,3081290060,"Canarsie                                                                   "
"64","2013-14","K067","","51 SAINT EDWARDS STREET CONSOLIDATED LOCATION","","51 SAINT EDWARDS STREET","K",13,"276","51 SAINT EDWARDS STREET CONSOLIDATED LOCATION",2,"P.S. 067 Charles A. Dorsey | Community Roots Charter School | 51 SAINT EDWARDS STREET CONSOLIDATED LOCATION","0","2","2","1","0","3C","251-500","0.35","1.06","1.09","0.73","0.5","BROOKLYN ",11205,40.695633,-73.978215,2,35,2901,3332507,3020390002,"Fort Greene                                                                "
"65","2013-14","K068","18K068","I.S. 068 Isaac Bildersee","K068","956 EAST  82 STREET","K",18,"734","",1,"I.S. 068 Isaac Bildersee","2","10","7","3","7","4C","501-750","0.33","1.32","1.76","0.83","0.59","BROOKLYN ",11236,40.635553,-73.91079,18,46,956,3224947,3080180001,"Canarsie                                                                   "
"66","2013-14","K069","20K069","P.S. 69 Vincent D. Grippo School","K069","6302 9TH AVENUE","K",20,"867","",1,"P.S. 69 Vincent D. Grippo School","0","0","0","0","0","5C","751-1000","0.52","1.71","2.49","1.16","0.75","BROOKLYN ",11220,40.632379,-74.009223,10,38,120,3387646,3057350032,"Sunset Park East                                                           "
"67","2013-14","K071","","215 HEYWARD STREET CONSOLIDATED LOCATION","","215 HEYWARD STREET","K",14,"778","215 HEYWARD STREET CONSOLIDATED LOCATION",2,"Juan Morel Campos Secondary School | Beginning with Children Charter School II | 215 HEYWARD STREET CONSOLIDATED LOCATION","3","13","12","7","7","5C","751-1000","0.52","1.71","2.49","1.16","0.75","BROOKLYN ",11206,40.703624,-73.953146,1,33,529,3061064,3022270001,"Williamsburg                                                               "
"68","2013-14","K072","","605 SHEPHERD AVENUE CONSOLIDATED LOCATION","","605 SHEPHERD AVENUE","K",19,"798","605 SHEPHERD AVENUE CONSOLIDATED LOCATION",2,"East New York Elementary School of Excellence |  East New York Middle School of Excellence |  605 SHEPHERD AVENUE CONSOLIDATED LOCATION","1","2","4","1","2","5C","751-1000","0.52","1.71","2.49","1.16","0.75","BROOKLYN ",11208,40.669387,-73.879614,5,42,1164,3090219,3040690001,"East New York                                                              "
"69","2013-14","K097","21K097","P.S. 97 The Highlawn","K097","1855 STILLWELL AVENUE","K",21,"824","",1,"P.S. 97 The Highlawn","0","1","1","1","0","5C","751-1000","0.52","1.71","2.49","1.16","0.75","BROOKLYN ",11223,40.601433,-73.986139,11,47,404,3177680,3066670024,"Bensonhurst East                                                           "
"70","2013-14","K073","","251 MCDOUGAL STREET CONSOLIDATED LOCATION","","251 MCDOUGAL STREET","K",23,"396","251 MCDOUGAL STREET CONSOLIDATED LOCATION",3,"P.S. 073 Thomas S. Boyland |  Brooklyn Landmark Elementary School |  Brooklyn Environmental Exploration School (BEES) |  251 MCDOUGAL STREET CONSOLIDATED LOCATION","0","1","5","0","1","3C","251-500","0.35","1.06","1.09","0.73","0.5","BROOKLYN ",11233,40.680318,-73.910644,16,37,369,3041561,3015280001,"Ocean Hill                                                                 "
"71","2013-14","K075","32K075","P.S. 075 Mayda Cortiella","K075","95 GROVE STREET","K",32,"570","",1,"P.S. 075 Mayda Cortiella","0","0","1","0","0","4C","501-750","0.33","1.32","1.76","0.83","0.59","BROOKLYN ",11221,40.693313,-73.920666,4,34,419,3075879,3033140001,"Bushwick South                                                             "
"72","2013-14","K078","22K078","J.H.S. 078 Roy H. Mann","K078","1420 EAST  68 STREET","K",22,"914","",1,"J.H.S. 078 Roy H. Mann","1","3","7","1","3","5C","751-1000","0.52","1.71","2.49","1.16","0.75","BROOKLYN ",11234,40.621224,-73.91287,18,46,69602,3236496,3083880002,"Georgetown-Marine Park-Bergen Beach-Mill Basin                             "
"73","2013-14","K081","16K081","P.S. 081 Thaddeus Stevens","K081","990 DEKALB AVENUE","K",16,"383","",1,"P.S. 081 Thaddeus Stevens","0","4","2","2","1","3C","251-500","0.35","1.06","1.09","0.73","0.5","BROOKLYN ",11221,40.693161,-73.935765,3,36,289,3043248,3016020019,"Stuyvesant Heights                                                         "
"74","2013-14","K084","14K084","P.S. 084 Jose De Diego","K084","250 BERRY STREET","K",14,"616","",1,"P.S. 084 Jose De Diego","0","0","1","0","0","4C","501-750","0.33","1.32","1.76","0.83","0.59","BROOKLYN ",11249,40.714785,-73.963,1,34,551,3062766,3023910001,"North Side-South Side                                                      "
"75","2013-14","K085","75K753","P.S. K753 - School for Career Development","K753","510 CLERMONT AVENUE","K",13,"236","",1,"P.S. K753 - School for Career Development","2","4","4","3","3","2C","1-250","0.43","1.03","1.23","0.99","0.41","BROOKLYN ",11238,40.682533,-73.968769,2,35,179,3057521,3020080001,"Fort Greene                                                                "
"76","2013-14","K086","32K086","P.S. 086 The Irvington","K086","220 IRVING AVENUE","K",32,"456","",1,"P.S. 086 The Irvington","0","0","0","0","0","3C","251-500","0.35","1.06","1.09","0.73","0.5","BROOKLYN ",11237,40.700774,-73.91748,4,37,431,3075109,3032890027,"Bushwick North                                                             "
"77","2013-14","K088","","544 7TH AVENUE CONSOLIDATED LOCATION","","544 7TH AVENUE","K",15,"1,609","544 7TH AVENUE CONSOLIDATED LOCATION",2,"P.S. K053 |  J.H.S. 088 Peter Rouget |  544 7TH AVENUE CONSOLIDATED LOCATION","0","7","4","3","3","8C","1501-1750","0.81","3.95","6.51","2.3","1.78","BROOKLYN ",11215,40.660024,-73.987637,7,38,147,3331276,3008800001,"Sunset Park West                                                           "
"78","2013-14","K090","21K090","P.S. 90 Edna Cohen School","K090","2840 WEST  12 STREET","K",21,"620","",1,"P.S. 90 Edna Cohen School","0","2","2","2","0","4C","501-750","0.33","1.32","1.76","0.83","0.59","BROOKLYN ",11224,40.578255,-73.979628,13,47,350,3196558,3072660040,"West Brighton                                                              "
"79","2013-14","K091","17K091","P.S. 091 The Albany Avenue School","K091","532 ALBANY AVENUE","K",17,"483","",1,"P.S. 091 The Albany Avenue School","1","2","2","1","2","3C","251-500","0.35","1.06","1.09","0.73","0.5","BROOKLYN ",11203,40.661886,-73.93994,9,41,806,3106599,3047940026,"Prospect Lefferts Gardens-Wingate                                          "
"80","2013-14","K092","","601 PARKSIDE AVENUE CONSOLIDATED LOCATION","","601 PARKSIDE AVENUE","K",17,"493","601 PARKSIDE AVENUE CONSOLIDATED LOCATION",2,"P.S. 092 Adrian Hegeman |  Lefferts Gardens Charter School |  601 PARKSIDE AVENUE CONSOLIDATED LOCATION","2","0","2","1","1","3C","251-500","0.35","1.06","1.09","0.73","0.5","BROOKLYN ",11226,40.656046,-73.953742,9,40,802,3115866,3050490055,"Prospect Lefferts Gardens-Wingate                                          "
"81","2013-14","K093","13K093","P.S. 093 William H. Prescott","K093","31 NEW YORK AVENUE","K",13,"338","",1,"P.S. 093 William H. Prescott","0","1","0","1","0","3C","251-500","0.35","1.06","1.09","0.73","0.5","BROOKLYN ",11216,40.679097,-73.94684,3,36,247,3053993,3018680007,"Crown Heights North                                                        "
"82","2013-14","K094","15K094","P.S. 094 The Henry Longfellow","K094","5010 6 AVENUE","K",15,"1,519","",1,"P.S. 094 The Henry Longfellow","0","1","0","1","0","8C","1501-1750","0.81","3.95","6.51","2.3","1.78","BROOKLYN ",11220,40.64366,-74.008252,7,38,98,3332126,3007920026,"Sunset Park East                                                           "
"83","2013-14","K095","21K095","P.S. 095 The Gravesend","K095","345 VAN SICKLEN STREET","K",21,"964","",1,"P.S. 095 The Gravesend","0","0","3","0","0","5C","751-1000","0.52","1.71","2.49","1.16","0.75","BROOKLYN ",11223,40.595698,-73.97518,15,47,398,3192661,3071230066,"Gravesend                                                                  "
"84","2013-14","K099","21K099","P.S. 099 Isaac Asimov","K099","1120 EAST  10 STREET","K",21,"851","",1,"P.S. 099 Isaac Asimov","0","0","1","0","0","5C","751-1000","0.52","1.71","2.49","1.16","0.75","BROOKLYN ",11230,40.621565,-73.965595,12,44,454,3171478,3065350011,"Ocean Parkway South                                                        "
"85","2013-14","K100","21K100","P.S. 100 The Coney Island School","K100","2951 WEST  3 STREET","K",21,"724","",1,"P.S. 100 The Coney Island School","1","0","1","0","1","4C","501-750","0.33","1.32","1.76","0.83","0.59","BROOKLYN ",11224,40.57732,-73.971313,13,48,35602,3196595,3072810001,"West Brighton                                                              "
"86","2013-14","K101","21K101","P.S. 101 The Verrazano","K101","2360 BENSON AVENUE","K",21,"882","",1,"P.S. 101 The Verrazano","0","0","1","0","0","5C","751-1000","0.52","1.71","2.49","1.16","0.75","BROOKLYN ",11214,40.597863,-73.991693,11,47,302,3185973,3068750032,"Bensonhurst East                                                           "
"87","2013-14","K105","20K105","P.S. 105 The Blythebourne","K105","1031 59 STREET","K",20,"1,770","",1,"P.S. 105 The Blythebourne","0","1","0","1","0","9C","1751-2000","0.81","5.43","8.48","3.24","2.33","BROOKLYN ",11219,40.632936,-74.00374,12,38,214,3140612,3057020001,"Borough Park                                                               "
"88","2013-14","K106","32K106","P.S. 106 Edward Everett Hale","K106","1328 PUTNAM AVENUE","K",32,"595","",1,"P.S. 106 Edward Everett Hale","0","2","0","2","0","4C","501-750","0.33","1.32","1.76","0.83","0.59","BROOKLYN ",11221,40.693879,-73.913056,4,37,435,3077286,3033770001,"Bushwick North                                                             "
"89","2013-14","K110","14K110","P.S. 110 The Monitor","K110","124 MONITOR STREET","K",14,"375","",1,"P.S. 110 The Monitor","0","1","0","1","0","3C","251-500","0.35","1.06","1.09","0.73","0.5","BROOKLYN ",11222,40.723897,-73.942312,1,33,591,3067144,3026880042,"Greenpoint                                                                 "
"90","2013-14","K111","","35 STARR STREET CONSOLIDATED LOCATION","","35 STARR STREET","K",32,"802","35 STARR STREET CONSOLIDATED LOCATION",2,"I.S. 347 School of Humanities |  I.S. 349 Math, Science & Tech. |  35 STARR STREET CONSOLIDATED LOCATION","0","4","12","2","2","5C","751-1000","0.52","1.71","2.49","1.16","0.75","BROOKLYN ",11221,40.70069,-73.927481,4,34,423,3072497,3031850001,"Bushwick South                                                             "
"91","2013-14","K112","20K112","P.S. 112 Lefferts Park","K112","7115 15 AVENUE","K",20,"530","",1,"P.S. 112 Lefferts Park","0","0","1","0","0","4C","501-750","0.33","1.32","1.76","0.83","0.59","BROOKLYN ",11228,40.61978,-74.000792,11,43,190,3157760,3061800001,"Bensonhurst West                                                           "
"92","2013-14","K113","13K113","M.S. 113 Ronald Edmonds Learning Center","K113","300 ADELPHI STREET","K",13,"718","",1,"M.S. 113 Ronald Edmonds Learning Center","1","1","0","2","0","4C","501-750","0.33","1.32","1.76","0.83","0.59","BROOKLYN ",11205,40.688811,-73.971009,2,35,181,3059051,3021030004,"Fort Greene                                                                "
"93","2013-14","K114","","1077 REMSEN AVENUE CONSOLIDATED LOCATION","","1077 REMSEN AVENUE","K",18,"626","1077 REMSEN AVENUE CONSOLIDATED LOCATION",2,"P.S. 114 Ryder Elementary | Explore Excel Charter School | 1077 REMSEN AVENUE CONSOLIDATED LOCATION","1","0","0","1","0","4C","501-750","0.33","1.32","1.76","0.83","0.59","BROOKLYN ",11236,40.642792,-73.908806,18,46,964,3229159,3081600022,"Canarsie                                                                   "
"94","2013-14","K115","18K115","P.S. 115 Daniel Mucatel School","K115","1500 EAST  92 STREET","K",18,"1,172","",1,"P.S. 115 Daniel Mucatel School","0","1","1","1","0","6C","1001-1250","0.56","2.4","3.56","1.36","1.05","BROOKLYN ",11236,40.635015,-73.897262,18,46,1008,3232559,3082560001,"Canarsie                                                                   "
"95","2013-14","K116","32K116","P.S. 116 Elizabeth L Farrell","K116","515 KNICKERBOCKER AVENUE","K",32,"518","",1,"P.S. 116 Elizabeth L Farrell","0","0","0","0","0","4C","501-750","0.33","1.32","1.76","0.83","0.59","BROOKLYN ",11237,40.697779,-73.916521,4,37,433,3075909,3033170001,"Bushwick North                                                             "
"96","2013-14","K117","","300 WILLOUGHBY AVENUE CONSOLIDATED LOCATION","","300 WILLOUGHBY AVENUE","K",13,"715","300 WILLOUGHBY AVENUE CONSOLIDATED LOCATION",3,"Brooklyn Community High School of Communication, A |  MS 596 Peace Academy |  Brooklyn High School for Leadership and Community |  300 WILLOUGHBY AVENUE CONSOLIDATED LOCATION","0","2","2","0","2","4C","501-750","0.33","1.32","1.76","0.83","0.59","BROOKLYN ",11205,40.692642,-73.958794,3,33,235,3055165,3019260010,"Clinton Hill                                                               "
"97","2013-14","K119","22K119","P.S. 119 Amersfort","K119","3829 AVENUE K","K",22,"422","",1,"P.S. 119 Amersfort","0","0","1","0","0","3C","251-500","0.35","1.06","1.09","0.73","0.5","BROOKLYN ",11210,40.625662,-73.938265,18,45,734,3215816,3077860001,"Flatlands                                                                  "
"98","2013-14","K120","14K120","P.S. 120 Carlos Tapia","K120","18 BEAVER STREET","K",14,"467","",1,"P.S. 120 Carlos Tapia","0","0","1","0","0","3C","251-500","0.35","1.06","1.09","0.73","0.5","BROOKLYN ",11206,40.700911,-73.938884,4,34,389,3071806,3031370026,"Bushwick South                                                             "
"99","2013-14","K121","21K121","P.S. 121 Nelson A. Rockefeller","K121","5301 20 AVENUE","K",21,"378","",1,"P.S. 121 Nelson A. Rockefeller","0","0","0","0","0","3C","251-500","0.35","1.06","1.09","0.73","0.5","BROOKLYN ",11204,40.623273,-73.978822,12,44,464,3253281,3054951101,"Borough Park                                                               "
"100","2013-14","K123","32K123","P.S. 123 Suydam","K123","100 IRVING AVENUE","K",32,"841","",1,"P.S. 123 Suydam","0","0","0","0","0","5C","751-1000","0.52","1.71","2.49","1.16","0.75","BROOKLYN ",11237,40.703767,-73.922702,4,34,445,3072966,3032100001,"Bushwick North                                                             "
"101","2013-14","K124","15K124","P.S. 124 Silas B. Dutcher","K124","515 4 AVENUE","K",15,"321","",1,"P.S. 124 Silas B. Dutcher","0","0","0","0","0","3C","251-500","0.35","1.06","1.09","0.73","0.5","BROOKLYN ",11215,40.667545,-73.991046,6,39,141,3023391,3010340001,"Park Slope-Gowanus                                                         "
"102","2013-14","K126","","424 LEONARD STREET CONSOLIDATED LOCATION","","424 LEONARD STREET","K",14,"265","424 LEONARD STREET CONSOLIDATED LOCATION",3,"John Ericsson Middle School 126| Citizens of the World Charter School 1 Williamsbur| Northside Charter High School| 424 LEONARD STREET CONSOLIDATED LOCATION","0","5","5","1","1","3C","251-500","0.35","1.06","1.09","0.73","0.5","BROOKLYN ",11222,40.719819,-73.948625,1,33,499,3067788,3027120001,"Greenpoint                                                                 "
"103","2013-14","K127","20K127","P.S. 127 Mckinley Park","K127","7805 7 AVENUE","K",20,"518","",1,"P.S. 127 Mckinley Park","0","0","0","0","0","4C","501-750","0.33","1.32","1.76","0.83","0.59","BROOKLYN ",11228,40.624132,-74.018826,10,43,206,3150481,3059730001,"Dyker Heights                                                              "
"104","2013-14","K128","21K128","P.S. 128 Bensonhurst","K128","2075 84 STREET","K",21,"410","",1,"P.S. 128 Bensonhurst","0","0","0","0","0","3C","251-500","0.35","1.06","1.09","0.73","0.5","BROOKLYN ",11214,40.604871,-73.995545,11,47,288,3165232,3063290032,"Bensonhurst West                                                           "
"105","2013-14","K130","15K130","P.S. 130 The Parkside","K130","70 OCEAN PARKWAY","K",15,"698","",1,"P.S. 130 The Parkside","0","0","0","0","0","4C","501-750","0.33","1.32","1.76","0.83","0.59","BROOKLYN ",11218,40.648884,-73.975607,7,39,500,3124019,3053190001,"Windsor Terrace                                                            "
"106","2013-14","K131","15K131","P.S. 131 Brooklyn","K131","4305 FT HAMILTON PARKWAY","K",15,"1,117","",1,"P.S. 131 Brooklyn","0","0","2","0","0","6C","1001-1250","0.56","2.4","3.56","1.36","1.05","BROOKLYN ",11219,40.641157,-73.993482,12,39,224,3136085,3056030001,"Borough Park                                                               "
"107","2013-14","K132","14K132","P.S. 132 The Conselyea School","K132","320 MANHATTAN AVENUE","K",14,"775","",1,"P.S. 132 The Conselyea School","0","0","0","0","0","5C","751-1000","0.52","1.71","2.49","1.16","0.75","BROOKLYN ",11211,40.71466,-73.946108,1,34,497,3068728,3027590001,"East Williamsburg                                                          "
"108","2013-14","K135","18K135","P.S. 135 Sheldon A. Brookner","K135","684 LINDEN BOULEVARD","K",18,"680","",1,"P.S. 135 Sheldon A. Brookner","0","0","0","0","0","4C","501-750","0.33","1.32","1.76","0.83","0.59","BROOKLYN ",11203,40.65364,-73.933114,17,41,870,3102005,3046730001,"East Flatbush-Farragut                                                     "
"109","2013-14","K136","","4004 4 AVENUE CONSOLIDATED LOCATION","","4004 4 AVENUE","K",15,"1,089","4004 4 AVENUE CONSOLIDATED LOCATION",3,"I.S. 136 Charles O. Dewey |  Sunset Park Avenues Elementary School |  Sunset Park Prep |  4004 4 AVENUE CONSOLIDATED LOCATION","1","2","4","1","1","6C","1001-1250","0.56","2.4","3.56","1.36","1.05","BROOKLYN ",11232,40.651977,-74.006862,7,38,82,3010580,3007130020,"Sunset Park West                                                           "
"110","2013-14","K137","23K137","P.S./I.S. 137 Rachel Jean Mitchell","K137","121 SARATOGA AVENUE","K",23,"294","",1,"P.S./I.S. 137 Rachel Jean Mitchell","1","1","3","1","1","3C","251-500","0.35","1.06","1.09","0.73","0.5","BROOKLYN ",11233,40.682458,-73.917088,16,41,373,3040878,3015100001,"Ocean Hill                                                                 "
"111","2013-14","K138","","760 PROSPECT PLACE CONSOLIDATED LOCATION","","760 PROSPECT PLACE","K",17,"708","760 PROSPECT PLACE CONSOLIDATED LOCATION",2,"P.S. 138 Brooklyn|Success Academy Prospect Heights (Brooklyn 6)|760 PROSPECT PLACE CONSOLIDATED LOCATION","2","1","1","3","0","4C","501-750","0.33","1.32","1.76","0.83","0.59","BROOKLYN ",11216,40.67438,-73.951443,8,36,31701,3330794,3012330026,"Crown Heights North                                                        "
"112","2013-14","K139","22K139","P.S. 139 Alexine A. Fenty","K139","330 RUGBY ROAD","K",22,"1,041","",1,"P.S. 139 Alexine A. Fenty","2","0","1","2","0","6C","1001-1250","0.56","2.4","3.56","1.36","1.05","BROOKLYN ",11226,40.641937,-73.965523,14,40,1522,3328235,3051440064,"Flatbush                                                                   "
"113","2013-14","K142","","610 HENRY STREET CONSOLIDATED LOCATION","","610 HENRY STREET","K",15,"1,334","610 HENRY STREET CONSOLIDATED LOCATION",2,"P.S. 146 |  Brooklyn Secondary School for Collaborative Studie |  610 HENRY STREET CONSOLIDATED LOCATION","1","8","6","6","2","7C","1251-1500","0.86","3.26","5.55","2.17","1.29","BROOKLYN ",11231,40.68007,-74.001377,6,39,63,3336036,3003690001,"Carroll Gardens-Columbia Street-Red Hook                                   "
"114","2013-14","K145","32K145","P.S. 145 Andrew Jackson","K145","100 NOLL STREET","K",32,"837","",1,"P.S. 145 Andrew Jackson","2","2","0","4","0","5C","751-1000","0.52","1.71","2.49","1.16","0.75","BROOKLYN ",11206,40.701692,-73.932338,4,34,425,3071915,3031530011,"Bushwick South                                                             "
"115","2013-14","K147","","325 BUSHWICK AVENUE CONSOLIDATED LOCATION","","325 BUSHWICK AVENUE","K",14,"664","325 BUSHWICK AVENUE CONSOLIDATED LOCATION",2,"P.S. 147 Isaac Remsen |  Young Women's Leadership School of Brooklyn |  325 BUSHWICK AVENUE CONSOLIDATED LOCATION","1","3","1","3","1","4C","501-750","0.33","1.32","1.76","0.83","0.59","BROOKLYN ",11206,40.705204,-73.939407,1,34,485,3071418,3030910001,"Bushwick South                                                             "
"116","2013-14","K148","75K373","P.S. 373 - Brooklyn Transition Center","K373","185 ELLERY STREET","K",14,"353","",1,"P.S. 373 - Brooklyn Transition Center","1","7","0","5","3","3C","251-500","0.35","1.06","1.09","0.73","0.5","BROOKLYN ",11206,40.698869,-73.945042,3,36,257,3048352,3017260014,"Bedford                                                                    "
"117","2013-14","K149","19K149","P.S. 149 Danny Kaye","K149","700 SUTTER AVENUE","K",19,"739","",1,"P.S. 149 Danny Kaye","0","1","1","0","1","4C","501-750","0.33","1.32","1.76","0.83","0.59","BROOKLYN ",11207,40.669719,-73.892822,5,42,1158,3084348,3037740016,"East New York (Pennsylvania Ave)                                           "
"118","2013-14","K150","","364 SACKMAN STREET CONSOLIDATED LOCATION","","364 SACKMAN STREET","K",23,"213","364 SACKMAN STREET CONSOLIDATED LOCATION",2,"P.S. 150 Christopher | Brownsville Collegiate Charter School | 364 SACKMAN STREET CONSOLIDATED LOCATION","1","1","2","1","1","2C","1-250","0.43","1.03","1.23","0.99","0.41","BROOKLYN ",11212,40.66896,-73.904726,16,41,908,3084012,3037440009,"Brownsville                                                                "
"119","2013-14","K151","32K151","P.S. 151 Lyndon B. Johnson","K151","763 KNICKERBOCKER AVENUE","K",32,"384","",1,"P.S. 151 Lyndon B. Johnson","0","0","0","0","0","3C","251-500","0.35","1.06","1.09","0.73","0.5","BROOKLYN ",11207,40.693293,-73.90864,4,37,437,3078654,3034060001,"Bushwick North                                                             "
"120","2013-14","K152","","2310 GLENWOOD ROAD CONSOLIDATED LOCATION","","2310 GLENWOOD ROAD","K",22,"1,742","2310 GLENWOOD ROAD CONSOLIDATED LOCATION",2,"School of Science & Technology |  P.S. K315 |  2310 GLENWOOD ROAD CONSOLIDATED LOCATION","1","0","1","0","1","8C","1501-1750","0.81","3.95","6.51","2.3","1.78","BROOKLYN ",11210,40.633232,-73.954655,14,45,772,3205780,3075510026,"Flatbush                                                                   "
"121","2013-14","K153","21K153","P.S. 153 Homecrest","K153","1970 HOMECREST AVENUE","K",21,"546","",1,"P.S. 153 Homecrest","0","0","0","0","0","4C","501-750","0.33","1.32","1.76","0.83","0.59","BROOKLYN ",11229,40.601617,-73.959779,15,48,556,3196677,3072910030,"Homecrest                                                                  "
"122","2013-14","K154","15K154","The Windsor Terrace School","K154","1625 11 AVENUE","K",15,"546","",1,"The Windsor Terrace School","0","2","0","1","1","4C","501-750","0.33","1.32","1.76","0.83","0.59","BROOKLYN ",11215,40.657472,-73.97618,7,39,171,3121871,3052570001,"Windsor Terrace                                                            "
"123","2013-14","K155","23K155","P.S./ I.S. 155 Nicholas Herkimer","K155","1355 HERKIMER STREET","K",23,"511","",1,"P.S./ I.S. 155 Nicholas Herkimer","0","2","1","1","1","4C","501-750","0.33","1.32","1.76","0.83","0.59","BROOKLYN ",11233,40.677415,-73.908734,16,37,369,3042263,3015520043,"Ocean Hill                                                                 "
"124","2013-14","K157","14K157","P.S. 157 Benjamin Franklin","K157","850 KENT AVENUE","K",14,"558","",1,"P.S. 157 Benjamin Franklin","0","1","0","1","0","4C","501-750","0.33","1.32","1.76","0.83","0.59","BROOKLYN ",11205,40.695417,-73.959571,3,33,1237,3054671,3018970013,"Bedford                                                                    "
"125","2013-14","K158","19K158","P.S. 158 Warwick","K158","400 ASHFORD STREET","K",19,"552","",1,"P.S. 158 Warwick","0","1","0","1","0","4C","501-750","0.33","1.32","1.76","0.83","0.59","BROOKLYN ",11207,40.672579,-73.884803,5,37,1150,3089176,3040150001,"East New York                                                              "
"126","2013-14","K159","19K159","P.S. 159 Isaac Pitkin","K159","2781 PITKIN AVENUE","K",19,"854","",1,"P.S. 159 Isaac Pitkin","1","0","0","1","0","5C","751-1000","0.52","1.71","2.49","1.16","0.75","BROOKLYN ",11208,40.675766,-73.869469,5,42,1200,3094735,3042160001,"East New York                                                              "
"127","2013-14","K160","20K160","P.S. 160 William T. Sampson","K160","5105 Fort Hamilton Parkway","K",20,"1,254","",1,"P.S. 160 William T. Sampson","0","0","0","0","0","7C","1251-1500","0.86","3.26","5.55","2.17","1.29","BROOKLYN ",11219,40.637322,-73.999215,12,44,220,3138276,3056530021,"Borough Park                                                               "
"128","2013-14","K161","17K161","P.S. 161 The Crown","K161","330 CROWN STREET","K",17,"537","",1,"P.S. 161 The Crown","0","0","2","0","0","4C","501-750","0.33","1.32","1.76","0.83","0.59","BROOKLYN ",11225,40.666181,-73.949013,9,35,319,3034181,3012970026,"Crown Heights South                                                        "
"129","2013-14","K162","32K162","J.H.S. 162 The Willoughby","K162","1390 WILLOUGHBY AVENUE","K",32,"483","",1,"J.H.S. 162 The Willoughby","0","1","2","0","0","3C","251-500","0.35","1.06","1.09","0.73","0.5","BROOKLYN ",11237,40.707229,-73.919805,4,34,445,3073018,3032120001,"Bushwick North                                                             "
"130","2013-14","K163","20K748","P.S. 748 Brooklyn School for Global Scholars","K748","1664 BENSON AVENUE","K",20,"496","",1,"P.S. 748 Brooklyn School for Global Scholars","0","0","0","0","0","3C","251-500","0.35","1.06","1.09","0.73","0.5","BROOKLYN ",11214,40.607234,-74.007199,11,43,180,3167623,3063990026,"Bath Beach                                                                 "
"131","2013-14","K164","20K164","P.S. 164 Caesar Rodney","K164","4211 14 AVENUE","K",20,"543","",1,"P.S. 164 Caesar Rodney","0","0","0","0","0","4C","501-750","0.33","1.32","1.76","0.83","0.59","BROOKLYN ",11219,40.637486,-73.985955,12,44,232,3135976,3056000001,"Borough Park                                                               "
"132","2013-14","K165","23K165","P.S. 165 Ida Posner","K165","76 LOTT AVENUE","K",23,"472","",1,"P.S. 165 Ida Posner","1","3","1","1","3","3C","251-500","0.35","1.06","1.09","0.73","0.5","BROOKLYN ",11212,40.65744,-73.911053,16,42,896,3082726,3036220023,"Brownsville                                                                "
"133","2013-14","K166","","800 VAN SICLEN AVE CONSOLIDATED LOCATION","","800 VAN SICLEN AVE","K",19,"352","800 VAN SICLEN AVE CONSOLIDATED LOCATION",2,"J.H.S. 166 George Gershwin |  Van Siclen Community Middle School |  800 VAN SICLEN AVE CONSOLIDATED LOCATION","1","7","5","4","2","3C","251-500","0.35","1.06","1.09","0.73","0.5","BROOKLYN ",11207,40.66011,-73.885387,5,42,1104,3097675,3043490050,"East New York                                                              "
"134","2013-14","K167","","1025 EASTERN PARKWAY CONSOLIDATED LOCATION","","1025 EASTERN PARKWAY","K",17,"413","1025 EASTERN PARKWAY CONSOLIDATED LOCATION",3,"P.S. 167 The Parkway|  New Bridges Elementary|  Success Academy Crown Heights (Brooklyn 7)|  1025 EASTERN PARKWAY CONSOLIDATED LOCATION","0","1","1","1","0","3C","251-500","0.35","1.06","1.09","0.73","0.5","BROOKLYN ",11213,40.669001,-73.934635,8,35,353,3037303,3013890035,"Crown Heights North                                                        "
"135","2013-14","K169","15K169","P.S. 169 Sunset Park","K169","4305 7 AVENUE","K",15,"1,636","",1,"P.S. 169 Sunset Park","0","0","1","0","0","8C","1501-1750","0.81","3.95","6.51","2.3","1.78","BROOKLYN ",11232,40.64629,-74.001903,7,38,92,3011002,3007320001,"Sunset Park East                                                           "
"136","2013-14","K170","20K170","Ralph A. Fabrizio School","K170","7109 6 AVENUE","K",20,"936","",1,"Ralph A. Fabrizio School","0","0","0","0","0","5C","751-1000","0.52","1.71","2.49","1.16","0.75","BROOKLYN ",11209,40.630843,-74.01913,10,43,134,3146921,3058990001,"Bay Ridge                                                                  "
"137","2013-14","K171","19K171","I.S. 171 Abraham Lincoln","K171","528 RIDGEWOOD AVENUE","K",19,"780","",1,"I.S. 171 Abraham Lincoln","0","2","3","1","1","5C","751-1000","0.52","1.71","2.49","1.16","0.75","BROOKLYN ",11208,40.68618,-73.869625,5,37,1184,3092456,3041340020,"Cypress Hills-City Line                                                    "
"138","2013-14","K172","15K172","P.S. 172 Beacon School of Excellence","K172","825 4 AVENUE","K",15,"612","",1,"P.S. 172 Beacon School of Excellence","0","0","0","0","0","4C","501-750","0.33","1.32","1.76","0.83","0.59","BROOKLYN ",11232,40.657914,-74.000652,7,38,101,3009847,3006690001,"Sunset Park West                                                           "
"139","2013-14","K208","18K208","P.S. 208 Elsa Ebeling","K208","4801 AVENUE D","K",18,"479","",1,"P.S. 208 Elsa Ebeling","0","0","0","0","0","3C","251-500","0.35","1.06","1.09","0.73","0.5","BROOKLYN ",11203,40.642031,-73.931151,17,45,840,3105680,3047690025,"East Flatbush-Farragut                                                     "
"140","2013-14","K174","","574 DUMONT AVENUE CONSOLIDATED LOCATION","","574 DUMONT AVENUE","K",19,"473","574 DUMONT AVENUE CONSOLIDATED LOCATION",3,"P.S. 174 Dumont |  Brooklyn Gardens Elementary School |  School of the Future Brooklyn |  574 DUMONT AVENUE CONSOLIDATED LOCATION","0","1","1","1","0","3C","251-500","0.35","1.06","1.09","0.73","0.5","BROOKLYN ",11207,40.665798,-73.897723,5,42,1130,3084617,3038020015,"East New York (Pennsylvania Ave)                                           "
"141","2013-14","K175","","226 BRISTOL STREET CONSOLIDATED LOCATION","","226 BRISTOL STREET","K",23,"786","226 BRISTOL STREET CONSOLIDATED LOCATION",2,"Frederick Douglass Academy VII High School |  Teachers Preparatory High School |  226 BRISTOL STREET CONSOLIDATED LOCATION","1","8","11","8","1","5C","751-1000","0.52","1.71","2.49","1.16","0.75","BROOKLYN ",11212,40.665878,-73.911705,16,41,924,3081419,3035410001,"Brownsville                                                                "
"142","2013-14","K176","20K176","P.S. 176 Ovington","K176","1225 69 STREET","K",20,"1,414","",1,"P.S. 176 Ovington","0","3","0","3","0","7C","1251-1500","0.86","3.26","5.55","2.17","1.29","BROOKLYN ",11219,40.624611,-74.005378,10,43,196,3143190,3057740001,"Dyker Heights                                                              "
"143","2013-14","K177","21K177","P.S. 177 The Marlboro","K177","346 AVENUE P","K",21,"952","",1,"P.S. 177 The Marlboro","0","0","0","0","0","5C","751-1000","0.52","1.71","2.49","1.16","0.75","BROOKLYN ",11204,40.608604,-73.974847,11,44,424,3175834,3066310001,"Bensonhurst East                                                           "
"144","2013-14","K178","23K178","P.S. 178 Saint Clair Mckelway","K178","2163 DEAN STREET","K",23,"459","",1,"P.S. 178 Saint Clair Mckelway","1","4","1","1","4","3C","251-500","0.35","1.06","1.09","0.73","0.5","BROOKLYN ",11233,40.675024,-73.915778,16,41,303,3038718,3014400056,"Ocean Hill                                                                 "
"145","2013-14","K179","20K179","P.S. 179 Kensington","K179","202 AVENUE C","K",20,"993","",1,"P.S. 179 Kensington","0","1","1","1","0","5C","751-1000","0.52","1.71","2.49","1.16","0.75","BROOKLYN ",11218,40.640463,-73.977642,12,39,488,3126001,3053710001,"Kensington-Ocean Parkway                                                   "
"146","2013-14","K180","","5601 16 AVENUE CONSOLIDATED LOCATION","","5601 16 AVENUE","K",20,"1,501","5601 16 AVENUE CONSOLIDATED LOCATION",2,"The SEEALL Academy |  P.S. K231 |  5601 16 AVENUE CONSOLIDATED LOCATION","1","4","0","3","1","8C","1501-1750","0.81","3.95","6.51","2.3","1.78","BROOKLYN ",11204,40.627029,-73.989672,12,44,470,3130809,3054920001,"Borough Park                                                               "
"147","2013-14","K181","17K181","P.S. 181 Brooklyn","K181","1023 NEW YORK AVENUE","K",17,"1,044","",1,"P.S. 181 Brooklyn","1","4","2","1","3","6C","1001-1250","0.56","2.4","3.56","1.36","1.05","BROOKLYN ",11203,40.648215,-73.946374,17,45,856,3327776,3049040010,"East Flatbush-Farragut                                                     "
"148","2013-14","K183","","76 RIVERDALE AVENUE CONSOLIDATED LOCATION","","76 RIVERDALE AVENUE","K",23,"500","76 RIVERDALE AVENUE CONSOLIDATED LOCATION",4,"Riverdale Avenue Community School |  General D. Chappie James Elementary School of Scie |  General D. Chappie James Middle School of Science |  Riverdale Avenue Middle School |  76 RIVERDALE AVENUE CONSOLIDATED LOCATION","0","0","1","0","0","3C","251-500","0.35","1.06","1.09","0.73","0.5","BROOKLYN ",11212,40.660204,-73.913933,16,42,896,3082253,3035970011,"Brownsville                                                                "
"149","2013-14","K184","23K184","P.S. 184 Newport","K184","273 NEWPORT STREET","K",23,"571","",1,"P.S. 184 Newport","1","0","2","0","1","4C","501-750","0.33","1.32","1.76","0.83","0.59","BROOKLYN ",11212,40.659966,-73.904901,16,42,918,3082391,3036060001,"Brownsville                                                                "
"150","2013-14","K185","20K185","P.S. 185 Walter Kassenbrock","K185","8601 RIDGE BOULEVARD","K",20,"723","",1,"P.S. 185 Walter Kassenbrock","0","0","0","0","0","4C","501-750","0.33","1.32","1.76","0.83","0.59","BROOKLYN ",11209,40.623986,-74.033779,10,43,60,3153416,3060430001,"Bay Ridge                                                                  "
"151","2013-14","K186","20K186","P.S. 186 Dr. Irving A Gladstone","K186","7601 19 AVENUE","K",20,"958","",1,"P.S. 186 Dr. Irving A Gladstone","1","2","1","2","0","5C","751-1000","0.52","1.71","2.49","1.16","0.75","BROOKLYN ",11214,40.611483,-73.994677,11,47,274,3160923,3062390001,"Bensonhurst West                                                           "
"152","2013-14","K188","21K188","P.S. 188 Michael E. Berdy","K188","3314 NEPTUNE AVENUE","K",21,"540","",1,"P.S. 188 Michael E. Berdy","1","0","2","1","0","4C","501-750","0.33","1.32","1.76","0.83","0.59","BROOKLYN ",11224,40.577217,-74.000194,13,47,328,3188726,3070060001,"Seagate-Coney Island                                                       "
"153","2013-14","K189","17K189","P.S. 189 The Bilingual Center","K189","1100 EAST NEW YORK AVENUE","K",17,"1,188","",1,"P.S. 189 The Bilingual Center","0","2","3","0","1","6C","1001-1250","0.56","2.4","3.56","1.36","1.05","BROOKLYN ",11212,40.665565,-73.926246,17,41,892,3099537,3045990001,"Brownsville                                                                "
"154","2013-14","K190","","590 SHEFFIELD AVENUE CONSOLIDATED LOCATION","","590 SHEFFIELD AVENUE","K",19,"350","590 SHEFFIELD AVENUE CONSOLIDATED LOCATION",2,"P.S. 190 Sheffield |  Essence School |  590 SHEFFIELD AVENUE CONSOLIDATED LOCATION","1","1","1","2","0","3C","251-500","0.35","1.06","1.09","0.73","0.5","BROOKLYN ",11207,40.662326,-73.894441,5,42,1128,3085491,3038380018,"East New York (Pennsylvania Ave)                                           "
"155","2013-14","K191","17K191","P.S. 191 Paul Robeson","K191","1600 PARK PLACE","K",17,"223","",1,"P.S. 191 Paul Robeson","1","1","1","2","0","2C","1-250","0.43","1.03","1.23","0.99","0.41","BROOKLYN ",11233,40.672005,-73.924329,8,41,359,3036635,3013750012,"Crown Heights North                                                        "
"156","2013-14","K192","20K192","P.S. 192 - The Magnet School for Math and Science","K192","4715 18 AVENUE","K",20,"617","",1,"P.S. 192 - The Magnet School for Math and Science","0","1","0","1","0","4C","501-750","0.33","1.32","1.76","0.83","0.59","BROOKLYN ",11204,40.629303,-73.979995,12,44,476,3128909,3054450001,"Borough Park                                                               "
"157","2013-14","K193","22K193","P.S. 193 Gil Hodges","K193","2515 AVENUE L","K",22,"873","",1,"P.S. 193 Gil Hodges","2","0","0","2","0","5C","751-1000","0.52","1.71","2.49","1.16","0.75","BROOKLYN ",11210,40.621507,-73.950473,14,45,754,3208461,3076250001,"Midwood                                                                    "
"158","2013-14","K194","22K194","P.S. 194 Raoul Wallenberg","K194","3117 AVENUE W","K",22,"455","",1,"P.S. 194 Raoul Wallenberg","1","0","0","1","0","3C","251-500","0.35","1.06","1.09","0.73","0.5","BROOKLYN ",11229,40.596757,-73.933499,15,46,570,3201629,3073930001,"Sheepshead Bay-Gerritsen Beach-Manhattan Beach                             "
"159","2013-14","K195","22K195","P.S. 195 Manhattan Beach","K195","131 IRWIN STREET","K",22,"459","",1,"P.S. 195 Manhattan Beach","0","0","0","0","0","3C","251-500","0.35","1.06","1.09","0.73","0.5","BROOKLYN ",11235,40.579451,-73.943819,15,48,620,3246519,3087520035,"Sheepshead Bay-Gerritsen Beach-Manhattan Beach                             "
"160","2013-14","K319","14K319","P.S. 319","K319","360 KEAP STREET","K",14,"152","",1,"P.S. 319","0","0","0","0","0","2C","1-250","0.43","1.03","1.23","0.99","0.41","BROOKLYN ",11211,40.709674,-73.954217,1,34,527,3063189,3024240001,"North Side-South Side                                                      "
"161","2013-14","K196","","207 BUSHWICK AVENUE CONSOLIDATED LOCATION","","207 BUSHWICK AVENUE","K",14,"630","207 BUSHWICK AVENUE CONSOLIDATED LOCATION",2,"P.S. 196 Ten Eyck |  M.S. 582 |  207 BUSHWICK AVENUE CONSOLIDATED LOCATION","0","2","1","1","0","4C","501-750","0.33","1.32","1.76","0.83","0.59","BROOKLYN ",11206,40.708723,-73.940002,1,34,485,3071024,3030460001,"Bushwick South                                                             "
"162","2013-14","K197","","1599 EAST  22 STREET CONSOLIDATED LOCATION","","1599 EAST  22 STREET","K",22,"929","1599 EAST  22 STREET CONSOLIDATED LOCATION",2,"P.S. 197 - The Kings Highway Academy |  I. S. 381 |  1599 EAST  22 STREET CONSOLIDATED LOCATION","0","2","1","1","0","5C","751-1000","0.52","1.71","2.49","1.16","0.75","BROOKLYN ",11210,40.612623,-73.951906,14,48,546,3182169,3067690018,"Midwood                                                                    "
"163","2013-14","K198","22K198","P.S. 198 Brooklyn","K198","4105 FARRAGUT ROAD","K",22,"511","",1,"P.S. 198 Brooklyn","0","0","0","0","0","4C","501-750","0.33","1.32","1.76","0.83","0.59","BROOKLYN ",11210,40.63694,-73.937339,17,45,836,3113388,3049880066,"East Flatbush-Farragut                                                     "
"164","2013-14","K199","21K199","P.S. 199 Frederick Wachtel","K199","1100 ELM AVENUE","K",21,"481","",1,"P.S. 199 Frederick Wachtel","0","0","0","0","0","3C","251-500","0.35","1.06","1.09","0.73","0.5","BROOKLYN ",11230,40.616632,-73.963476,14,48,768,3180761,3067400025,"Midwood                                                                    "
"165","2013-14","K200","20K200","P.S. 200 Benson School","K200","1940 BENSON AVENUE","K",20,"1,335","",1,"P.S. 200 Benson School","0","1","0","1","0","7C","1251-1500","0.86","3.26","5.55","2.17","1.29","BROOKLYN ",11214,40.603188,-74.001408,11,43,282,3167818,3064070008,"Bath Beach                                                                 "
"166","2013-14","K201","20K201","J.H.S. 201 The Dyker Heights","K201","8010 12 AVENUE","K",20,"1,437","",1,"J.H.S. 201 The Dyker Heights","0","1","0","0","1","7C","1251-1500","0.86","3.26","5.55","2.17","1.29","BROOKLYN ",11228,40.618676,-74.012722,10,43,166,3162973,3062780022,"Dyker Heights                                                              "
"167","2013-14","K202","","982 HEGEMAN AVENUE CONSOLIDATED LOCATION","","982 HEGEMAN AVENUE","K",19,"683","982 HEGEMAN AVENUE CONSOLIDATED LOCATION",2,"P.S. 202 Ernest S. Jenkyns|Achievement First Aspire Charter School|982 HEGEMAN AVENUE CONSOLIDATED LOCATION","1","2","13","2","1","4C","501-750","0.33","1.32","1.76","0.83","0.59","BROOKLYN ",11208,40.666417,-73.876563,5,42,1116,3098664,3044770001,"East New York                                                              "
"168","2013-14","K203","22K203","P.S. 203 Floyd Bennett School","K203","5101 AVENUE M","K",22,"775","",1,"P.S. 203 Floyd Bennett School","2","3","1","2","2","5C","751-1000","0.52","1.71","2.49","1.16","0.75","BROOKLYN ",11234,40.621436,-73.925989,18,46,680,3218626,3078490001,"Flatlands                                                                  "
"169","2013-14","K204","20K204","P.S. 204 Vince Lombardi","K204","8101 15 AVENUE","K",20,"1,166","",1,"P.S. 204 Vince Lombardi","0","0","0","0","0","6C","1001-1250","0.56","2.4","3.56","1.36","1.05","BROOKLYN ",11228,40.614159,-74.006638,11,43,184,3163702,3062940001,"Bensonhurst West                                                           "
"170","2013-14","K205","20K205","P.S. 205 Clarion","K205","6701 20 AVENUE","K",20,"1,098","",1,"P.S. 205 Clarion","0","0","0","0","0","6C","1001-1250","0.56","2.4","3.56","1.36","1.05","BROOKLYN ",11204,40.61527,-73.987149,11,47,256,3134749,3055710001,"Bensonhurst West                                                           "
"171","2013-14","K206","22K206","P.S. 206 Joseph F Lamb","K206","2200 GRAVESEND NECK ROAD","K",22,"1,393","",1,"P.S. 206 Joseph F Lamb","1","1","1","1","1","7C","1251-1500","0.86","3.26","5.55","2.17","1.29","BROOKLYN ",11229,40.597369,-73.948946,15,48,59401,3201080,3073810201,"Sheepshead Bay-Gerritsen Beach-Manhattan Beach                             "
"172","2013-14","K207","22K207","P.S. 207 Elizabeth G. Leary","K207","4011 FILLMORE AVENUE","K",22,"1,272","",1,"P.S. 207 Elizabeth G. Leary","0","0","0","0","0","7C","1251-1500","0.86","3.26","5.55","2.17","1.29","BROOKLYN ",11234,40.613353,-73.930129,18,46,652,3239388,3084840001,"Georgetown-Marine Park-Bergen Beach-Mill Basin                             "
"173","2013-14","K209","21K209","P.S. 209 Margaret Mead","K209","2609 EAST  7 STREET","K",21,"696","",1,"P.S. 209 Margaret Mead","0","0","0","0","0","4C","501-750","0.33","1.32","1.76","0.83","0.59","BROOKLYN ",11235,40.586845,-73.96198,13,48,370,3196224,3072440001,"Brighton Beach                                                             "
"174","2013-14","K210","","188 ROCHESTER AVENUE CONSOLIDATED LOCATION","","188 ROCHESTER AVENUE","K",17,"631","188 ROCHESTER AVENUE CONSOLIDATED LOCATION",2,"M.S. K394|Explore Empower Charter School|188 ROCHESTER AVENUE CONSOLIDATED LOCATION","0","1","2","1","0","4C","501-750","0.33","1.32","1.76","0.83","0.59","BROOKLYN ",11213,40.672762,-73.927973,8,36,347,3036289,3013670022,"Crown Heights North                                                        "
"175","2013-14","K211","","1001 EAST 100 STREET CONSOLIDATED LOCATION","","1001 EAST 100 STREET","K",18,"703","1001 EAST 100 STREET CONSOLIDATED LOCATION",2,"I.S. 211 John Wilson|Leadership Prep Canarsie Charter School (Leadershi|1001 EAST 100 STREET CONSOLIDATED LOCATION","0","3","3","2","1","4C","501-750","0.33","1.32","1.76","0.83","0.59","BROOKLYN ",11236,40.643278,-73.896212,18,46,988,3326732,3082270001,"Canarsie                                                                   "
"176","2013-14","K212","21K212","P.S. 212 Lady Deborah Moody","K212","87 BAY  49 STREET","K",21,"678","",1,"P.S. 212 Lady Deborah Moody","0","0","1","0","0","4C","501-750","0.33","1.32","1.76","0.83","0.59","BROOKLYN ",11214,40.587616,-73.985948,13,47,314,3187407,3069170001,"Gravesend                                                                  "
"177","2013-14","K213","19K213","P.S. 213 New Lots","K213","580 HEGEMAN AVENUE","K",19,"440","",1,"P.S. 213 New Lots","0","2","4","2","0","3C","251-500","0.35","1.06","1.09","0.73","0.5","BROOKLYN ",11207,40.66051,-73.890288,5,42,1104,3097334,3043240001,"East New York                                                              "
"178","2013-14","K214","19K214","P.S. 214 Michael Friedsam","K214","2944 PITKIN AVENUE","K",19,"991","",1,"P.S. 214 Michael Friedsam","0","0","0","0","0","5C","751-1000","0.52","1.71","2.49","1.16","0.75","BROOKLYN ",11208,40.676513,-73.863151,5,37,1202,3095254,3042430001,"Cypress Hills-City Line                                                    "
"179","2013-14","K215","21K215","P.S. 215 Morris H. Weiss","K215","415 AVENUE S","K",21,"959","",1,"P.S. 215 Morris H. Weiss","1","0","1","1","0","5C","751-1000","0.52","1.71","2.49","1.16","0.75","BROOKLYN ",11223,40.602084,-73.970013,15,47,41401,3178584,3066810169,"Homecrest                                                                  "
"180","2013-14","K216","21K216","P.S. 216 Arturo Toscanini","K216","350 AVENUE X","K",21,"623","",1,"P.S. 216 Arturo Toscanini","0","0","0","0","0","4C","501-750","0.33","1.32","1.76","0.83","0.59","BROOKLYN ",11223,40.590564,-73.969964,15,47,37401,3195175,3071960001,"Gravesend                                                                  "
"181","2013-14","K217","22K217","P.S. 217 Colonel David Marcus School","K217","1100 NEWKIRK AVENUE","K",22,"1,302","",1,"P.S. 217 Colonel David Marcus School","1","1","0","1","1","7C","1251-1500","0.86","3.26","5.55","2.17","1.29","BROOKLYN ",11230,40.63398,-73.966558,14,40,526,3121072,3052320001,"Flatbush                                                                   "
"182","2013-14","K218","","370 FOUNTAIN AVENUE CONSOLIDATED LOCATION","","370 FOUNTAIN AVENUE","K",19,"797","370 FOUNTAIN AVENUE CONSOLIDATED LOCATION",3,"J.H.S. 218 James P. Sinnott|The School for Classics: An Academy of Thinkers, W|Invictus Preparatory Charter School|370 FOUNTAIN AVENUE CONSOLIDATED LOCATION","1","3","17","3","1","5C","751-1000","0.52","1.71","2.49","1.16","0.75","BROOKLYN ",11208,40.670724,-73.874208,5,42,1118,3095977,3042780001,"East New York                                                              "
"183","2013-14","K219","18K219","P.S. 219 Kennedy-King","K219","1060 CLARKSON AVENUE","K",18,"559","",1,"P.S. 219 Kennedy-King","0","0","0","0","0","4C","501-750","0.33","1.32","1.76","0.83","0.59","BROOKLYN ",11212,40.659288,-73.922919,17,41,886,3101168,3046480001,"Rugby-Remsen Village                                                       "
"184","2013-14","K220","20K220","J.H.S. 220 John J. Pershing","K220","4812 9TH AVENUE","K",20,"1,400","",1,"J.H.S. 220 John J. Pershing","0","3","1","2","1","7C","1251-1500","0.86","3.26","5.55","2.17","1.29","BROOKLYN ",11220,40.640545,-74.000731,12,38,108,3012824,3007780023,"Sunset Park East                                                           "
"185","2013-14","K221","","791 EMPIRE BOULEVARD CONSOLIDATED LOCATION","","791 EMPIRE BOULEVARD","K",17,"450","791 EMPIRE BOULEVARD CONSOLIDATED LOCATION",2,"P.S. 221 Toussaint L'Ouverture|Citizens of the World Charter School New York 2 Cr|791 EMPIRE BOULEVARD CONSOLIDATED LOCATION","1","1","0","1","1","3C","251-500","0.35","1.06","1.09","0.73","0.5","BROOKLYN ",11213,40.663701,-73.936049,9,35,355,3038372,3014230014,"Crown Heights South                                                        "
"186","2013-14","K222","22K222","P.S. 222 Katherine R. Snyder","K222","3301 QUENTIN ROAD","K",22,"865","",1,"P.S. 222 Katherine R. Snyder","0","0","0","0","0","5C","751-1000","0.52","1.71","2.49","1.16","0.75","BROOKLYN ",11234,40.613317,-73.938871,18,46,646,3212254,3077060001,"Georgetown-Marine Park-Bergen Beach-Mill Basin                             "
"187","2013-14","K223","","4200 16 AVENUE CONSOLIDATED LOCATION","","4200 16 AVENUE","K",20,"1,427","4200 16 AVENUE CONSOLIDATED LOCATION",2,"J.H.S. 223 The Montauk |  Urban Assembly School for Criminal Justice |  4200 16 AVENUE CONSOLIDATED LOCATION","0","3","3","1","2","7C","1251-1500","0.86","3.26","5.55","2.17","1.29","BROOKLYN ",11204,40.634875,-73.981528,12,44,230,3125676,3053620021,"Borough Park                                                               "
"188","2013-14","K224","19K224","P.S. 224 Hale A. Woodruff","K224","757 WORTMAN AVENUE","K",19,"595","",1,"P.S. 224 Hale A. Woodruff","0","4","6","1","2","4C","501-750","0.33","1.32","1.76","0.83","0.59","BROOKLYN ",11208,40.664075,-73.866092,5,42,1220,3098980,3045300001,"East New York                                                              "
"189","2013-14","K345","19K345","P.S. 345 Patrolman Robert Bolden","K345","111 BERRIMAN STREET","K",19,"689","",1,"P.S. 345 Patrolman Robert Bolden","0","0","0","0","0","4C","501-750","0.33","1.32","1.76","0.83","0.59","BROOKLYN ",11208,40.676129,-73.880337,5,37,1192,3088734,3039900001,"East New York                                                              "
"190","2013-14","K225","","1075 OCEAN VIEW AVENUE CONSOLIDATED LOCATION","","1075 OCEAN VIEW AVENUE","K",21,"1,329","1075 OCEAN VIEW AVENUE CONSOLIDATED LOCATION",2,"P.S. K225 - The Eileen E. Zaglin |  P.S. K771 |  1075 OCEAN VIEW AVENUE CONSOLIDATED LOCATION","0","1","3","1","0","7C","1251-1500","0.86","3.26","5.55","2.17","1.29","BROOKLYN ",11235,40.579737,-73.956329,13,48,61004,3245498,3087120056,"Brighton Beach                                                             "
"191","2013-14","K226","21K226","P.S. 226 Alfred De B.Mason","K226","6006 23 AVENUE","K",21,"995","",1,"P.S. 226 Alfred De B.Mason","0","0","0","0","0","5C","751-1000","0.52","1.71","2.49","1.16","0.75","BROOKLYN ",11204,40.615252,-73.97635,12,44,446,3172071,3065490024,"Borough Park                                                               "
"192","2013-14","K227","20K227","J.H.S. 227 Edward B. Shallow","K227","6500 16 AVENUE","K",20,"1,314","",1,"J.H.S. 227 Edward B. Shallow","0","1","6","0","1","7C","1251-1500","0.86","3.26","5.55","2.17","1.29","BROOKLYN ",11204,40.62191,-73.995022,11,38,250,3133741,3055510018,"Bensonhurst West                                                           "
"193","2013-14","K228","21K228","I.S. 228 David A. Boody","K228","228 AVENUE S","K",21,"1,048","",1,"I.S. 228 David A. Boody","0","1","3","0","1","6C","1001-1250","0.56","2.4","3.56","1.36","1.05","BROOKLYN ",11223,40.6013,-73.976953,11,47,410,3190273,3070840001,"Bensonhurst East                                                           "
"194","2013-14","K229","20K229","P.S. 229 Dyker","K229","1400 BENSON AVENUE","K",20,"1,149","",1,"P.S. 229 Dyker","0","0","0","0","0","6C","1001-1250","0.56","2.4","3.56","1.36","1.05","BROOKLYN ",11228,40.610963,-74.013376,11,43,170,3167212,3063910024,"Bath Beach                                                                 "
"195","2013-14","K230","15K230","P.S. 230 Doris L. Cohen","K230","1 ALBEMARLE ROAD","K",15,"1,355","",1,"P.S. 230 Doris L. Cohen","0","0","0","0","0","7C","1251-1500","0.86","3.26","5.55","2.17","1.29","BROOKLYN ",11218,40.645017,-73.980761,12,39,498,3124109,3053230032,"Kensington-Ocean Parkway                                                   "
"196","2013-14","K232","","905 WINTHROP STREET CONSOLIDATED LOCATION","","905 WINTHROP STREET","K",18,"851","905 WINTHROP STREET CONSOLIDATED LOCATION",3,"East Flatbush Community Research School |  Arts & Media Preparatory Academy |  Middle School of Marketing and Legal Studies |  905 WINTHROP STREET CONSOLIDATED LOCATION","2","15","4","6","6","5C","751-1000","0.52","1.71","2.49","1.16","0.75","BROOKLYN ",11203,40.65843,-73.929076,17,41,880,3099733,3046060025,"Prospect Lefferts Gardens-Wingate                                          "
"197","2013-14","K233","18K233","P.S. 233 Langston Hughes","K233","9301 AVENUE B","K",18,"544","",1,"P.S. 233 Langston Hughes","1","0","0","0","1","4C","501-750","0.33","1.32","1.76","0.83","0.59","BROOKLYN ",11236,40.651022,-73.91402,17,42,930,3104990,3047530001,"Rugby-Remsen Village                                                       "
"198","2013-14","K234","22K234","J.H.S. 234 Arthur W. Cunningham","K234","1875 EAST  17 STREET","K",22,"1,863","",1,"J.H.S. 234 Arthur W. Cunningham","0","4","8","1","3","9C","1751-2000","0.81","5.43","8.48","3.24","2.33","BROOKLYN ",11229,40.60422,-73.955485,15,48,558,3184057,3068210244,"Madison                                                                    "
"199","2013-14","K235","18K235","P.S. 235 Lenox School","K235","525 LENOX ROAD","K",18,"1,234","",1,"P.S. 235 Lenox School","0","0","0","0","0","6C","1001-1250","0.56","2.4","3.56","1.36","1.05","BROOKLYN ",11203,40.654704,-73.941089,17,41,814,3107846,3048440001,"East Flatbush-Farragut                                                     "
"200","2013-14","K236","22K236","P.S. 236 Mill Basin","K236","6302 AVENUE U","K",22,"581","",1,"P.S. 236 Mill Basin","0","0","0","0","0","4C","501-750","0.33","1.32","1.76","0.83","0.59","BROOKLYN ",11234,40.615998,-73.912989,18,46,698,3326821,3084640001,"Georgetown-Marine Park-Bergen Beach-Mill Basin                             "
"201","2013-14","K250","14K250","P.S. 250 George H. Lindsay","K250","108 MONTROSE AVENUE","K",14,"769","",1,"P.S. 250 George H. Lindsay","0","0","0","0","0","5C","751-1000","0.52","1.71","2.49","1.16","0.75","BROOKLYN ",11206,40.707104,-73.945475,1,34,505,3071199,3030600001,"East Williamsburg                                                          "
"202","2013-14","K237","","50 AVENUE P CONSOLIDATED LOCATION","","50 AVENUE P","K",20,"722","50 AVENUE P CONSOLIDATED LOCATION",2,"The Academy of Talented Scholars |  Brooklyn School of Inquiry |  50 AVENUE P CONSOLIDATED LOCATION","0","0","3","0","0","4C","501-750","0.33","1.32","1.76","0.83","0.59","BROOKLYN ",11204,40.60731,-73.986595,11,44,428,3396829,3066180001,"Bensonhurst East                                                           "
"203","2013-14","K238","21K238","P.S. 238 Anne Sullivan","K238","1633 EAST  8 STREET","K",21,"550","",1,"P.S. 238 Anne Sullivan","0","2","1","1","1","4C","501-750","0.33","1.32","1.76","0.83","0.59","BROOKLYN ",11223,40.608862,-73.965058,15,44,420,3176229,3066400013,"Homecrest                                                                  "
"204","2013-14","K282","13K282","P.S. 282 Park Slope","K282","180 6 AVENUE","K",13,"1,004","",1,"P.S. 282 Park Slope","1","2","2","3","0","6C","1001-1250","0.56","2.4","3.56","1.36","1.05","BROOKLYN ",11217,40.67634,-73.977367,6,39,131,3019597,3009500024,"Park Slope-Gowanus                                                         "
"205","2013-14","K239","21K239","Mark Twain I.S. 239 for the Gifted & Talented","K239","2401 NEPTUNE AVENUE","K",21,"1,312","",1,"Mark Twain I.S. 239 for the Gifted & Talented","0","1","1","0","1","7C","1251-1500","0.86","3.26","5.55","2.17","1.29","BROOKLYN ",11224,40.578188,-73.99203,13,47,330,3188221,3069650140,"Seagate-Coney Island                                                       "
"206","2013-14","K240","22K240","Andries Hudde","K240","2500 NOSTRAND AVENUE","K",22,"916","",1,"Andries Hudde","2","6","6","0","5","5C","751-1000","0.52","1.71","2.49","1.16","0.75","BROOKLYN ",11210,40.623561,-73.946279,14,45,748,3208638,3076290030,"Midwood                                                                    "
"207","2013-14","K241","17K241","P.S. 241 Emma L. Johnston","K241","976 PRESIDENT STREET","K",17,"657","",1,"P.S. 241 Emma L. Johnston","0","0","0","0","0","4C","501-750","0.33","1.32","1.76","0.83","0.59","BROOKLYN ",11225,40.669339,-73.960675,9,35,213,3378160,3011880001,"Crown Heights South                                                        "
"208","2013-14","K242","18K635","Olympus Academy","K635","755 EAST  100 STREET","K",18,"192","",1,"Olympus Academy","0","1","0","1","0","2C","1-250","0.43","1.03","1.23","0.99","0.41","BROOKLYN ",11236,40.645685,-73.8989,18,46,974,3229773,3081880001,"Canarsie                                                                   "
"209","2013-14","K243","","1580 DEAN STREET CONSOLIDATED LOCATION","","1580 DEAN STREET","K",16,"286","1580 DEAN STREET CONSOLIDATED LOCATION",2,"P.S. 243K- The Weeksville School|LAUNCH EXPEDITIONARY LEARNING CHARTER SCHOOL|1580 DEAN STREET CONSOLIDATED LOCATION","0","0","0","0","0","3C","251-500","0.35","1.06","1.09","0.73","0.5","BROOKLYN ",11213,40.676094,-73.935688,8,36,309,3035761,3013470001,"Crown Heights North                                                        "
"210","2013-14","K244","18K244","P.S. 244 Richard R. Green","K244","5404 TILDEN AVENUE","K",18,"704","",1,"P.S. 244 Richard R. Green","0","0","1","0","0","4C","501-750","0.33","1.32","1.76","0.83","0.59","BROOKLYN ",11203,40.648423,-73.925948,17,45,946,3104513,3047390001,"Rugby-Remsen Village                                                       "
"211","2013-14","K246","","72 VERONICA PLACE CONSOLIDATED LOCATION","","72 VERONICA PLACE","K",17,"603","72 VERONICA PLACE CONSOLIDATED LOCATION",3,"M.S. 246 Walt Whitman|Fahari Academy Charter School|ALC - MS 246|72 VERONICA PLACE CONSOLIDATION LOCATION","2","5","4","2","4","4C","501-750","0.33","1.32","1.76","0.83","0.59","BROOKLYN ",11226,40.648608,-73.952821,17,40,794,3117381,3051100025,"Erasmus                                                                    "
"212","2013-14","K247","20K247","P.S. 247 Brooklyn","K247","7000 21 AVENUE","K",20,"796","",1,"P.S. 247 Brooklyn","0","0","1","0","0","5C","751-1000","0.52","1.71","2.49","1.16","0.75","BROOKLYN ",11204,40.612273,-73.986713,11,47,258,3157466,3061740036,"Bensonhurst West                                                           "
"213","2013-14","K249","17K249","P.S. 249 The Caton","K249","18 MARLBOROUGH ROAD","K",17,"907","",1,"P.S. 249 The Caton","0","1","0","1","0","5C","751-1000","0.52","1.71","2.49","1.16","0.75","BROOKLYN ",11226,40.64971,-73.966046,14,40,506,3116438,3050750001,"Flatbush                                                                   "
"214","2013-14","K251","22K251","P.S. 251 Paerdegat","K251","1037 EAST  54 STREET","K",22,"573","",1,"P.S. 251 Paerdegat","1","2","1","2","1","4C","501-750","0.33","1.32","1.76","0.83","0.59","BROOKLYN ",11234,40.632524,-73.924417,18,46,722,3214729,3077580001,"Flatlands                                                                  "
"215","2013-14","K252","","1084 LENOX ROAD CONSOLIDATED LOCATION","","1084 LENOX ROAD","K",18,"330","1084 LENOX ROAD CONSOLIDATED LOCATION",2,"Middle School for Art and Philosophy|Kings Collegiate Charter School|1084 LENOX ROAD CONSOLIDATED LOCATION","2","0","0","0","2","3C","251-500","0.35","1.06","1.09","0.73","0.5","BROOKLYN ",11212,40.658295,-73.920109,17,41,886,3101840,3046690037,"Rugby-Remsen Village                                                       "
"216","2013-14","K253","21K253","P.S. 253","K253","601 OCEANVIEW AVENUE","K",21,"806","",1,"P.S. 253","0","0","0","0","0","5C","751-1000","0.52","1.71","2.49","1.16","0.75","BROOKLYN ",11235,40.579607,-73.962071,13,48,364,3244470,3086660610,"Brighton Beach                                                             "
"217","2013-14","K254","22K254","P.S. 254 Dag Hammarskjold","K254","1801 AVENUE Y","K",22,"700","",1,"P.S. 254 Dag Hammarskjold","0","0","0","0","0","4C","501-750","0.33","1.32","1.76","0.83","0.59","BROOKLYN ",11235,40.590423,-73.951753,15,48,592,3203132,3074200026,"Sheepshead Bay-Gerritsen Beach-Manhattan Beach                             "
"218","2013-14","K255","22K255","P.S. 255 Barbara Reing School","K255","1866 EAST  17 STREET","K",22,"868","",1,"P.S. 255 Barbara Reing School","0","0","1","0","0","5C","751-1000","0.52","1.71","2.49","1.16","0.75","BROOKLYN ",11229,40.604349,-73.955528,15,48,558,3184034,3068210123,"Madison                                                                    "
"219","2013-14","K256","13K256","P.S. 256 Benjamin Banneker","K256","114 KOSCIUSKO STREET","K",13,"355","",1,"P.S. 256 Benjamin Banneker","0","1","1","0","1","3C","251-500","0.35","1.06","1.09","0.73","0.5","BROOKLYN ",11216,40.690725,-73.950433,3,36,253,3049769,3017840020,"Bedford                                                                    "
"220","2013-14","K257","14K257","P.S. 257 John F. Hylan","K257","60 COOK STREET","K",14,"660","",1,"P.S. 257 John F. Hylan","0","2","0","2","0","4C","501-750","0.33","1.32","1.76","0.83","0.59","BROOKLYN ",11206,40.702392,-73.941801,1,34,491,3071571,3031140011,"East Williamsburg                                                          "
"221","2013-14","Q079","25Q079","P.S. 079 Francis Lewis","Q079","147-27 15 DRIVE","Q",25,"975","",1,"P.S. 079 Francis Lewis","1","0","0","1","0","5C","751-1000","0.52","1.71","2.49","1.16","0.75","QUEENS   ",11357,40.785909,-73.818058,7,19,1039,4105232,4046470001,"Whitestone                                                                 "
"222","2013-14","K258","","141 MACON STREET CONSOLIDATED LOCATION","","141 MACON STREET","K",13,"272","141 MACON STREET CONSOLIDATED LOCATION",3,"P.S. K140|Leadership Prep Bedford Stuyvesant Charter School|ALC - MS 258|141 MACON STREET CONSOLIDATED LOCATION","0","4","6","0","2","3C","251-500","0.35","1.06","1.09","0.73","0.5","BROOKLYN ",11216,40.681572,-73.945446,3,36,269,3053075,3018450001,"Bedford                                                                    "
"223","2013-14","K259","20K259","J.H.S. 259 William Mckinley","K259","7305 FT HAMILTON PARKWAY","K",20,"1,427","",1,"J.H.S. 259 William Mckinley","1","2","0","2","0","7C","1251-1500","0.86","3.26","5.55","2.17","1.29","BROOKLYN ",11228,40.62668,-74.01512,10,43,206,3148031,3059230001,"Dyker Heights                                                              "
"224","2013-14","K260","","875 WILLIAMS AVENUE CONSOLIDATED LOCATION","","875 WILLIAMS AVENUE","K",19,"226","875 WILLIAMS AVENUE CONSOLIDATED LOCATION",2,"P.S. 260 Breuckelen |  The Fresh Creek School |  875 WILLIAMS AVENUE CONSOLIDATED LOCATION","0","0","0","0","0","2C","1-250","0.43","1.03","1.23","0.99","0.41","BROOKLYN ",11207,40.654031,-73.894854,18,42,982,3229155,3081580035,"Canarsie                                                                   "
"225","2013-14","K261","15K261","P.S. 261 Philip Livingston","K261","314 PACIFIC STREET","K",15,"817","",1,"P.S. 261 Philip Livingston","0","2","0","2","0","5C","751-1000","0.52","1.71","2.49","1.16","0.75","BROOKLYN ",11201,40.687466,-73.988288,2,33,43,3001070,3001880014,"DUMBO-Vinegar Hill-Downtown Brooklyn-Boerum Hill                           "
"226","2013-14","K262","16K262","P.S. 262 El Hajj Malik El Shabazz Elementary Schoo","K262","500 MACON STREET","K",16,"504","",1,"P.S. 262 El Hajj Malik El Shabazz Elementary Schoo","0","2","2","2","0","4C","501-750","0.33","1.32","1.76","0.83","0.59","BROOKLYN ",11233,40.683241,-73.930813,3,36,297,3046876,3016710019,"Crown Heights North                                                        "
"227","2013-14","K263","","210 CHESTER STREET CONSOLIDATED LOCATION","","210 CHESTER STREET","K",23,"664","210 CHESTER STREET CONSOLIDATED LOCATION",2,"P.S./I.S. 323 |  Mott Hall Bridges Academy |  210 CHESTER STREET CONSOLIDATED LOCATION","1","3","0","4","0","4C","501-750","0.33","1.32","1.76","0.83","0.59","BROOKLYN ",11212,40.666545,-73.910904,16,41,924,3081442,3035420001,"Brownsville                                                                "
"228","2013-14","K264","20K264","P.S. 264 BAY RIDGE ELEMENTARY SCHOOL FOR THE ARTS","K264","371 89th Street","K",20,"362","",1,"P.S. 264 BAY RIDGE ELEMENTARY SCHOOL FOR THE ARTS","0","0","0","0","0","3C","251-500","0.35","1.06","1.09","0.73","0.5","BROOKLYN ",11209,40.620957,-74.03015,10,43,60,3413664,3060620141,"Bay Ridge                                                                  "
"229","2013-14","K265","","101 PARK AVENUE CONSOLIDATED LOCATION","","101 PARK AVENUE","K",13,"503","101 PARK AVENUE CONSOLIDATED LOCATION",2,"Dr. Susan S. McKinney Secondary School of the Arts| Success Academy Fort Greene (Brooklyn 5)| 101 PARK AVENUE CONSOLIDATED LOCATION","1","3","5","3","0","4C","501-750","0.33","1.32","1.76","0.83","0.59","BROOKLYN ",11205,40.696324,-73.97578,2,35,211,3057942,3020280001,"Fort Greene                                                                "
"230","2013-14","K268","18K268","P.S. 268 Emma Lazarus","K268","133 EAST  53 STREET","K",18,"459","",1,"P.S. 268 Emma Lazarus","0","0","1","0","0","3C","251-500","0.35","1.06","1.09","0.73","0.5","BROOKLYN ",11203,40.657131,-73.928018,17,41,866,3100292,3046230028,"Rugby-Remsen Village                                                       "
"231","2013-14","K269","22K269","P.S. 269 Nostrand","K269","1957 NOSTRAND AVENUE","K",22,"397","",1,"P.S. 269 Nostrand","0","0","1","0","0","3C","251-500","0.35","1.06","1.09","0.73","0.5","BROOKLYN ",11210,40.637711,-73.948159,17,45,788,3113780,3049940023,"Flatbush                                                                   "
"232","2013-14","K270","","241 EMERSON PLACE CONSOLIDATED LOCATION","","241 EMERSON PLACE","K",13,"157","241 EMERSON PLACE CONSOLIDATED LOCATION",2,"P.S. 270 Johann DeKalb | Community Partnership Charter School | 241 EMERSON PLACE CONSOLIDATED LOCATION","0","0","1","0","0","2C","1-250","0.43","1.03","1.23","0.99","0.41","BROOKLYN ",11205,40.690202,-73.961478,2,35,193,3055378,3019330102,"Clinton Hill                                                               "
"233","2013-14","X107","08X107","P.S. 107","X107","1695 SEWARD AVENUE","X",8,"510","",1,"P.S. 107","0","1","1","0","1","4C","501-750","0.33","1.32","1.76","0.83","0.59","BRONX    ",10473,40.818467,-73.868372,9,18,20,2021972,2035910050,"Soundview-Castle Hill-Clason Point-Harding Park                            "
"234","2013-14","K335","","130 ROCHESTER AVENUE CONSOLIDATED LOCATION","","130 ROCHESTER AVENUE","K",16,"503","130 ROCHESTER AVENUE CONSOLIDATED LOCATION",2,"P.S. 335 Granville T. Woods |  M.S. 584 |  130 ROCHESTER AVENUE CONSOLIDATED LOCATION","1","1","4","2","0","4C","501-750","0.33","1.32","1.76","0.83","0.59","BROOKLYN ",11213,40.674656,-73.927794,8,36,307,3035887,3013550023,"Crown Heights North                                                        "
"235","2013-14","K271","","1137 HERKIMER STREET CONSOLIDATED LOCATION","","1137 HERKIMER STREET","K",23,"717","1137 HERKIMER STREET CONSOLIDATED LOCATION",3,"Mott Hall IV |  Eagle Academy for Young Men II |Ocean Hill Collegiate Charter School |1137 HERKIMER STREET CONSOLIDATED LOCATION","2","12","5","12","1","4C","501-750","0.33","1.32","1.76","0.83","0.59","BROOKLYN ",11233,40.677805,-73.915843,16,41,301,3042157,3015500001,"Ocean Hill                                                                 "
"236","2013-14","K272","18K272","P.S. 272 Curtis Estabrook","K272","101-24 SEAVIEW AVENUE","K",18,"574","",1,"P.S. 272 Curtis Estabrook","0","1","0","0","1","4C","501-750","0.33","1.32","1.76","0.83","0.59","BROOKLYN ",11236,40.635916,-73.886412,18,46,1034,3235262,3083290250,"Canarsie                                                                   "
"237","2013-14","K273","19K273","P.S. 273 Wortman","K273","923 JEROME STREET","K",19,"340","",1,"P.S. 273 Wortman","0","0","0","0","0","3C","251-500","0.35","1.06","1.09","0.73","0.5","BROOKLYN ",11207,40.657922,-73.879354,5,42,1078,3097973,3044010001,"East New York                                                              "
"238","2013-14","K274","32K274","P.S. 274 Kosciusko","K274","800 BUSHWICK AVENUE","K",32,"582","",1,"P.S. 274 Kosciusko","0","0","1","0","0","4C","501-750","0.33","1.32","1.76","0.83","0.59","BROOKLYN ",11221,40.694921,-73.927931,4,34,393,3073752,3032410037,"Bushwick South                                                             "
"239","2013-14","K275","","985 ROCKAWAY AVENUE CONSOLIDATED LOCATION","","985 ROCKAWAY AVENUE","K",23,"619","985 ROCKAWAY AVENUE CONSOLIDATED LOCATION",4,"Kappa V |  Brooklyn Democracy Academy |Leadership Preparatory Brownsville Charter School |Metropolitan Diploma Plus High School |  985 ROCKAWAY AVENUE CONSOLIDATED LOCATION","1","4","2","2","2","4C","501-750","0.33","1.32","1.76","0.83","0.59","BROOKLYN ",11212,40.656068,-73.907245,16,42,922,3082940,3036360007,"Brownsville                                                                "
"240","2013-14","K276","18K276","P.S. 276 Louis Marshall","K276","1070 EAST  83 STREET","K",18,"761","",1,"P.S. 276 Louis Marshall","0","0","0","0","0","5C","751-1000","0.52","1.71","2.49","1.16","0.75","BROOKLYN ",11236,40.634085,-73.907925,18,46,996,3225637,3080340001,"Canarsie                                                                   "
"241","2013-14","K277","22K277","P.S. 277 Gerritsen Beach","K277","2529 GERRITSEN AVENUE","K",22,"461","",1,"P.S. 277 Gerritsen Beach","0","0","0","0","0","3C","251-500","0.35","1.06","1.09","0.73","0.5","BROOKLYN ",11229,40.596145,-73.928793,18,46,666,3242369,3085900650,"park-cemetery-etc-Brooklyn                                                 "
"242","2013-14","K278","22K278","J.H.S. 278 Marine Park","K278","1925 STUART STREET","K",22,"1,073","",1,"J.H.S. 278 Marine Park","0","3","7","1","0","6C","1001-1250","0.56","2.4","3.56","1.36","1.05","BROOKLYN ",11229,40.60665,-73.939176,15,46,666,3239889,3084960100,"park-cemetery-etc-Brooklyn                                                 "
"243","2013-14","K279","18K279","P.S. 279 Herman Schreiber","K279","1070 EAST 104 STREET","K",18,"532","",1,"P.S. 279 Herman Schreiber","0","0","0","0","0","4C","501-750","0.33","1.32","1.76","0.83","0.59","BROOKLYN ",11236,40.644203,-73.892264,18,46,986,3326733,3082300001,"Canarsie                                                                   "
"244","2013-14","K281","21K281","I.S. 281 Joseph B Cavallaro","K281","8787 24 AVENUE","K",21,"1,177","",1,"I.S. 281 Joseph B Cavallaro","1","3","5","1","0","6C","1001-1250","0.56","2.4","3.56","1.36","1.05","BROOKLYN ",11214,40.595341,-73.993457,11,47,304,3186626,3068910001,"Bensonhurst East                                                           "
"245","2013-14","K284","23K284","P.S. 284 Lew Wallace","K284","213 OSBORN STREET","K",23,"587","",1,"P.S. 284 Lew Wallace","0","2","2","1","1","4C","501-750","0.33","1.32","1.76","0.83","0.59","BROOKLYN ",11212,40.667377,-73.908214,16,41,912,3081460,3035440135,"Brownsville                                                                "
"246","2013-14","K285","18K285","I.S. 285 Meyer Levin","K285","5909 BEVERLY ROAD","K",18,"914","",1,"I.S. 285 Meyer Levin","0","5","4","1","1","5C","751-1000","0.52","1.71","2.49","1.16","0.75","BROOKLYN ",11203,40.646877,-73.920977,17,45,936,3104599,3047440001,"Rugby-Remsen Village                                                       "
"247","2013-14","K286","75K811","P.S. K811 Connie Lekas School","K811","2525 HARING STREET","K",22,"343","",1,"P.S. K811 Connie Lekas School","1","1","1","2","0","3C","251-500","0.35","1.06","1.09","0.73","0.5","BROOKLYN ",11235,40.591109,-73.9391,15,48,596,3204767,3074470001,"Sheepshead Bay-Gerritsen Beach-Manhattan Beach                             "
"248","2013-14","K287","13K287","P.S. 287 Bailey K. Ashford","K287","50 NAVY STREET","K",13,"215","",1,"P.S. 287 Bailey K. Ashford","0","0","0","0","0","2C","1-250","0.43","1.03","1.23","0.99","0.41","BROOKLYN ",11201,40.697901,-73.98054,2,35,23,3000203,3001110001,"DUMBO-Vinegar Hill-Downtown Brooklyn-Boerum Hill                           "
"249","2013-14","K288","21K288","P.S. 288 The Shirley Tanyhill","K288","2950 WEST  25 STREET","K",21,"451","",1,"P.S. 288 The Shirley Tanyhill","0","0","2","0","0","3C","251-500","0.35","1.06","1.09","0.73","0.5","BROOKLYN ",11224,40.574411,-73.99194,13,47,342,3189538,3070540045,"Seagate-Coney Island                                                       "
"250","2013-14","K289","17K289","P.S. 289 George V. Brower","K289","900 ST MARKS AVENUE","K",17,"515","",1,"P.S. 289 George V. Brower","0","0","2","0","0","4C","501-750","0.33","1.32","1.76","0.83","0.59","BROOKLYN ",11213,40.674794,-73.942639,8,36,341,3031050,3012290028,"Crown Heights North                                                        "
"251","2013-14","K290","19K290","P.S. 290 Juan Morel Campos","K290","135 SCHENCK AVENUE","K",19,"574","",1,"P.S. 290 Juan Morel Campos","0","0","1","0","0","4C","501-750","0.33","1.32","1.76","0.83","0.59","BROOKLYN ",11207,40.67789,-73.889758,5,37,1198,3087821,3039490018,"East New York                                                              "
"252","2013-14","K291","","231 PALMETTO STREET CONSOLIDATED LOCATION","","231 PALMETTO STREET","K",32,"842","231 PALMETTO STREET CONSOLIDATED LOCATION",3,"J.H.S. 291 Roland Hayes |  Bushwick Community High School | Math, Engineering, and Science Academy Charter Hig |  231 PALMETTO STREET CONSOLIDATED LOCATION","1","0","12","1","0","5C","751-1000","0.52","1.71","2.49","1.16","0.75","BROOKLYN ",11221,40.695362,-73.915142,4,37,433,3076460,3033430001,"Bushwick North                                                             "
"253","2013-14","K292","","301 VERMONT STREET|300 WYONA STREET|CONSOLIDATED LOCATION","","300 WYONA STREET/ 301 VERMONT STREET","K",19,"727","301 VERMONT STREET|300 WYONA STREET|CONSOLIDATED LOCATION",2,"J.H.S. 292 Margaret S. Douglas | The Uft Charter School | 301 VERMONT STREET|300 WYONA STREET|CONSOLIDATED LOCATION","3","4","12","3","4","4C","501-750","0.33","1.32","1.76","0.83","0.59","",NA,NA,NA,NA,NA,NA,NA,NA,""
"254","2013-14","K293","","284 BALTIC STREET CONSOLIDATED LOCATION","","284 BALTIC STREET","K",15,"754","284 BALTIC STREET CONSOLIDATED LOCATION",2,"Brooklyn School for Global Studies | Success Academy C harter School- Cobble Hill |   School for International Studies |  284 BALTIC STREET CONSOLIDATED LOCATION","1","9","7","7","1","5C","751-1000","0.52","1.71","2.49","1.16","0.75","BROOKLYN ",11201,40.685419,-73.993351,6,33,69,3006401,3004020001,"DUMBO-Vinegar Hill-Downtown Brooklyn-Boerum Hill                           "
"255","2013-14","K296","","125 COVERT STREET CONSOLIDATED LOCATION","","125 COVERT STREET","K",32,"357","125 COVERT STREET CONSOLIDATED LOCATION",2,"I.S. 296 - The Anna Gonzalez Community School |  Evergreen Middle School for Urban Exploration |  125 COVERT STREET CONSOLIDATED LOCATION","1","5","4","4","2","3C","251-500","0.35","1.06","1.09","0.73","0.5","BROOKLYN ",11207,40.688387,-73.910276,4,37,413,3079027,3034160001,"Bushwick South                                                             "
"256","2013-14","K297","","700 PARK AVENUE CONSOLIDATED LOCATION","","700 PARK AVENUE","K",14,"271","700 PARK AVENUE CONSOLIDATED LOCATION",2,"P.S. 297 Abraham Stockton| The Ethical Community Charter School (TECCS)| 700 PARK AVENUE CONSOLIDATED LOCATION","0","0","0","0","0","3C","251-500","0.35","1.06","1.09","0.73","0.5","BROOKLYN ",11206,40.697781,-73.947809,3,36,257,3048508,3017390011,"Bedford                                                                    "
"257","2013-14","Q188","26Q188","P.S. 188 Kingsbury","Q188","218-12 HARTLAND AVENUE","Q",26,"643","",1,"P.S. 188 Kingsbury","0","0","0","0","0","4C","501-750","0.33","1.32","1.76","0.83","0.59","QUEENS   ",11364,40.736177,-73.753159,11,23,129104,4164350,4077740165,"Oakland Gardens                                                            "
